"lon","lat","is_broken","state","city","street","last_checked","date"
-81.458202,30.642142,FALSE,"FL","Fernandina Beach","1896 S 8th St",2022-08-11 20:27:06,2022-08-12
-81.551909,30.627912,FALSE,"FL","Yulee","463761 Sr 200",2022-08-11 20:28:06,2022-08-12
-81.645355,30.619995,FALSE,"FL","Yulee","116 E Sr 200",2022-08-11 20:27:06,2022-08-12
-81.635695,30.480178,FALSE,"FL","Jacksonville","14030 Hubble Rd",2022-08-11 20:27:06,2022-08-12
-81.830604,30.563913,FALSE,"FL","Callahan","542361 Us Highway 1",2022-08-11 20:28:06,2022-08-12
-81.634007,30.461062,FALSE,"FL","Jacksonville","12311 N Main Street",2022-08-11 20:28:06,2022-08-12
-81.40061,30.324963,FALSE,"FL","Atlantic Beach","435 Atlantic Blvd",2022-08-11 20:27:06,2022-08-12
-81.502281,30.360598,FALSE,"FL","Jacksonville","2707 Monument Rd",2022-08-11 20:27:06,2022-08-12
-81.660311,30.430416,FALSE,"FL","Jacksonville","909 Dunn Ave",2022-08-11 20:27:06,2022-08-12
-81.698043,30.437641,FALSE,"FL","Jacksonville","11130 Lem Turner Rd",2022-08-11 20:27:06,2022-08-12
-81.46106,30.320623,FALSE,"FL","Jacksonville","13217 Atlantic Blvd",2022-08-11 20:27:06,2022-08-12
-81.391185,30.28762,FALSE,"FL","Jacksonville Beach","51 S 3rd St",2022-08-11 20:28:06,2022-08-12
-81.491443,30.317354,FALSE,"FL","Jacksonville","11900 Atlantic Blvd",2022-08-11 20:28:06,2022-08-12
-81.54535,30.342304,FALSE,"FL","Jacksonville","1441 Hutchinson Dr",2022-08-11 20:28:06,2022-08-12
-81.597418,30.365679,FALSE,"FL","Jacksonville","6030 Fort Caroline Rd",2022-08-11 20:27:06,2022-08-12
-81.576694,30.352432,TRUE,"FL","Jacksonville","7245 Merrill Rd",2022-08-11 20:28:06,2022-08-12
-81.441101,30.287346,FALSE,"FL","Jacksonville","14200 Beach Blvd",2022-08-11 20:27:06,2022-08-12
-81.389035,30.253415,FALSE,"FL","Jacksonville Beach","317 Marsh Landing Pkwy",2022-08-11 20:27:06,2022-08-12
-81.54376,30.322699,FALSE,"FL","Jacksonville","9841 Atlantic Blvd",2022-08-11 20:29:06,2022-08-12
-81.664407,30.371322,FALSE,"FL","Jacksonville","5320 Norwood Ave",2022-08-11 20:29:06,2022-08-12
-81.603126,30.329419,FALSE,"FL","Jacksonville","1001 N University Blvd",2022-08-11 20:29:06,2022-08-12
-81.527243,30.286426,FALSE,"FL","Jacksonville","11310 Beach Blvd",2022-08-11 20:28:06,2022-08-12
-81.667338,30.346679,FALSE,"FL","Jacksonville","1768 Davis St",2022-08-11 20:28:06,2022-08-12
-81.723272,30.370077,FALSE,"FL","Jacksonville","5911 Us Highway 1 North",2022-08-11 20:28:06,2022-08-12
-81.652685,30.332685,FALSE,"FL","Jacksonville","253 State St E",2022-08-11 20:28:06,2022-08-12
-81.562671,30.283467,FALSE,"FL","Jacksonville","8808 Beach Blvd",2022-08-11 20:28:06,2022-08-12
-81.528673,30.26075,FALSE,"FL","Jacksonville","4587 Town Center Parkway",2022-08-11 20:28:06,2022-08-12
-81.380886,30.192291,FALSE,"FL","Ponte Vedra Beach","100 Ponte Vedra Boulevard",2022-08-11 20:28:06,2022-08-12
-81.60549,30.294072,FALSE,"FL","Jacksonville","5689 Beach Blvd",2022-08-11 20:28:06,2022-08-12
-81.557143,30.265013,FALSE,"FL","Jacksonville","4291 Southside Blvd",2022-08-11 20:28:06,2022-08-12
-81.632575,30.288912,FALSE,"FL","Jacksonville","3143 Emerson St",2022-08-11 20:28:06,2022-08-12
-81.731299,30.321196,TRUE,"FL","Jacksonville","454 Cassat Ave",2022-08-11 20:28:06,2022-08-12
-81.510872,30.215757,FALSE,"FL","Jacksonville","11320 Baymeadows Rd E",2022-08-11 20:29:06,2022-08-12
-81.624138,30.261978,FALSE,"FL","Jacksonville","3750 W University Boulevard",2022-08-11 20:28:06,2022-08-12
-81.597404,30.244781,FALSE,"FL","Jacksonville","7116 Bonneval Rd",2022-08-11 20:29:06,2022-08-12
-81.752898,30.30521,FALSE,"FL","Jacksonville","6546 Normandy Blvd",2022-08-11 20:28:06,2022-08-12
-81.579741,30.220363,FALSE,"FL","Jacksonville","8590 Bay Meadows Rd",2022-08-11 20:28:06,2022-08-12
-81.758458,30.301466,FALSE,"FL","Jacksonville","6830 Normandy Blvd",2022-08-11 20:28:06,2022-08-12
-81.782155,30.292699,FALSE,"FL","Jacksonville","8029 Normandy Blvd",2022-08-11 20:28:06,2022-08-12
-81.736399,30.270796,FALSE,"FL","Jacksonville","3552 Blanding Blvd",2022-08-11 20:28:06,2022-08-12
-81.697322,30.248643,FALSE,"FL","Jacksonville","5451 Roosevelt Blvd",2022-08-11 20:28:06,2022-08-12
-81.553616,30.17941,FALSE,"FL","Jacksonville","10420 S Phillips Hwy",2022-08-11 20:28:06,2022-08-12
-81.847938,30.306437,FALSE,"FL","Jacksonville","705 Chaffee Rd S",2022-08-11 20:29:06,2022-08-12
-81.678988,30.223648,FALSE,"FL","Jacksonville","Nax Jax-Asax & Saratoga",2022-08-11 20:28:06,2022-08-12
-81.624223,30.192716,FALSE,"FL","Jacksonville","10135 San Jose Blvd",2022-08-11 20:28:06,2022-08-12
-81.753025,30.250499,TRUE,"FL","Jacksonville","6767 103rd Street",2022-08-11 20:28:06,2022-08-12
-81.60418,30.172703,FALSE,"FL","Jacksonville","11230 Old St Augustine Rd",2022-08-11 20:29:06,2022-08-12
-81.767931,30.248744,FALSE,"FL","Jacksonville","7359 103rd St",2022-08-11 20:28:06,2022-08-12
-81.545481,30.142374,FALSE,"FL","Jacksonville","14151 St Augustine Rd",2022-08-11 20:29:06,2022-08-12
-81.633075,30.160532,FALSE,"FL","Jacksonville","11682 San Jose Blvd",2022-08-11 20:29:06,2022-08-12
-81.74015,30.205256,FALSE,"FL","Jacksonville","7784 Blanding Blvd",2022-08-11 20:28:06,2022-08-12
-81.702335,30.1838,FALSE,"FL","Orange Park","428 Park Ave",2022-08-11 20:28:06,2022-08-12
-81.494338,30.06578,FALSE,"FL","Jacksonville","1625 County Rd 210 W",2022-08-11 20:28:06,2022-08-12
-81.62629,30.117581,FALSE,"FL","Saint Johns","490 State Road 13 N",2022-08-11 20:28:06,2022-08-12
-81.982161,30.285994,FALSE,"FL","Jacksonville","1077 S. Us 301 Hwy",2022-08-11 20:29:06,2022-08-12
-81.796157,30.195256,TRUE,"FL","Jacksonville","8570 Argyle Forest Blvd",2022-08-11 20:28:06,2022-08-12
-81.748459,30.166446,FALSE,"FL","Orange Park","372 Blanding Blvd",2022-08-11 20:28:06,2022-08-12
-81.825657,30.196345,FALSE,"FL","Jacksonville","9571 Argyle Forest Blvd",2022-08-11 20:28:06,2022-08-12
-81.536684,30.057698,FALSE,"FL","St. Augustine","101 Natures Walk Pkwy",2022-08-11 20:28:06,2022-08-12
-81.768704,30.137703,FALSE,"FL","Orange Park","899 Blanding Blvd",2022-08-11 20:28:06,2022-08-12
-81.711679,30.102837,TRUE,"FL","Orange Park","5000 Us Highway 17",2022-08-11 20:28:06,2022-08-12
-81.782321,30.13245,TRUE,"FL","Orange Park","1083 Blanding Blvd",2022-08-11 20:29:06,2022-08-12
-81.320066,29.902844,FALSE,"FL","St. Augustine","1106 Ponce De Leon Blvd",2022-08-11 20:28:06,2022-08-12
-81.775889,30.099645,FALSE,"FL","Middleburg","561 Plantation Dr",2022-08-11 20:28:06,2022-08-12
-82.122303,30.265517,FALSE,"FL","Macclenny","1381 S 6th St",2022-08-11 20:28:06,2022-08-12
-81.490367,29.962529,FALSE,"FL","St. Augustine","103 Tuscan Way",2022-08-11 20:28:06,2022-08-12
-81.280945,29.861328,FALSE,"FL","St. Augustine","1870 A1a South",2022-08-11 20:28:06,2022-08-12
-81.408778,29.917413,FALSE,"FL","St. Augustine","2340 St Rd 16",2022-08-11 20:29:06,2022-08-12
-81.342807,29.864094,FALSE,"FL","St. Augustine","37 Epic Blvd",2022-08-11 20:28:06,2022-08-12
-81.323489,29.853488,FALSE,"FL","St. Augustine","2431 Us Hwy 1 S",2022-08-11 20:29:06,2022-08-12
-81.689186,30.005074,FALSE,"FL","Green Cove Springs","1165 N Orange Ave",2022-08-11 20:28:06,2022-08-12
-81.864438,30.071969,FALSE,"FL","Middleburg","2485 Blanding Blvd",2022-08-11 20:28:06,2022-08-12
-81.211953,29.554329,FALSE,"FL","Palm Coast","2 Old Kings Road",2022-08-11 20:29:06,2022-08-12
-82.805511,30.317937,FALSE,"FL","White Springs","2964 County Rd 136",2022-08-11 20:29:06,2022-08-12
-81.237321,29.550485,FALSE,"FL","Palm Coast","4851 Belle Terre Pkwy",2022-08-11 20:29:06,2022-08-12
-82.111754,29.937641,FALSE,"FL","Starke","802 S Walnut Street",2022-08-11 20:29:06,2022-08-12
-82.638858,30.183721,FALSE,"FL","Lake City","491 Sw Main Blvd",2022-08-11 20:29:06,2022-08-12
-81.181009,29.476529,FALSE,"FL","Flagler Beach","6030 East Highway 100",2022-08-11 20:29:06,2022-08-12
-82.683683,30.180896,FALSE,"FL","Lake City","3133 W Us Highway 90",2022-08-11 20:29:06,2022-08-12
-82.964755,30.328793,FALSE,"FL","Live Oak","6653 Us Highway 129 N",2022-08-11 20:29:06,2022-08-12
-81.60551,29.644963,FALSE,"FL","East Palatka","168 S Us Highway 17",2022-08-11 20:29:06,2022-08-12
-81.216762,29.47617,FALSE,"FL","Palm Coast","5190 E Hwy 100",2022-08-11 20:29:06,2022-08-12
-81.65782,29.655276,FALSE,"FL","Palatka","2627 Reid Street",2022-08-11 20:29:06,2022-08-12
-81.681048,29.638591,TRUE,"FL","Palatka","1024 S Hwy 19",2022-08-11 20:29:06,2022-08-12
-82.042243,29.791953,FALSE,"FL","Keystone Height","7370 Sr 100",2022-08-11 20:29:06,2022-08-12
-83.408872,30.46895,FALSE,"FL","Madison","466 E Base St",2022-08-11 20:30:06,2022-08-12
-81.128546,29.333154,FALSE,"FL","Ormond Beach","1530 Us Hwy 1",2022-08-11 20:29:06,2022-08-12
-83.3583,30.399529,FALSE,"FL","Madison","6375 S Sr 53",2022-08-11 20:29:06,2022-08-12
-81.028909,29.267795,FALSE,"FL","Daytona Beach","3001 N Atlantic Ave",2022-08-11 20:29:06,2022-08-12
-81.887636,29.628262,FALSE,"FL","Interlachen","1154 Highway 20",2022-08-11 20:29:06,2022-08-12
-81.083709,29.278287,FALSE,"FL","Ormond Beach","100 South Nova Road",2022-08-11 20:29:06,2022-08-12
-81.031539,29.228316,FALSE,"FL","Holly Hill","151 Ridgewood Ave",2022-08-11 20:30:06,2022-08-12
-81.117973,29.255791,FALSE,"FL","Ormond Beach","105 Interchange Blvd",2022-08-11 20:30:06,2022-08-12
-81.055161,29.19786,FALSE,"FL","Daytona Beach","1376 W International Speedway Blvd",2022-08-11 20:30:06,2022-08-12
-81.032064,29.173324,FALSE,"FL","Daytona Beach","1121 Beville Rd",2022-08-11 20:30:06,2022-08-12
-81.087094,29.168477,FALSE,"FL","Daytona Beach","2994 Us Hwy 92",2022-08-11 20:30:06,2022-08-12
-82.08658,29.602397,FALSE,"FL","Hawthorne","5605 Se Us Hwy 301",2022-08-11 20:30:06,2022-08-12
-81.035825,29.142543,FALSE,"FL","Port Orange","3802 Clyde Morris Blvd",2022-08-11 20:30:06,2022-08-12
-81.006235,29.126298,FALSE,"FL","Port Orange","3816 S Nova Rd",2022-08-11 20:30:06,2022-08-12
-82.512839,29.801013,FALSE,"FL","Alachua","16018 Nw Us Hwy 441",2022-08-11 20:30:06,2022-08-12
-82.301254,29.663887,TRUE,"FL","Gainesville","1800 Ne 12th Ave",2022-08-11 20:30:06,2022-08-12
-81.034067,29.104431,FALSE,"FL","Port Orange","1676 Taylor Rd",2022-08-11 20:30:06,2022-08-12
-82.339552,29.679398,FALSE,"FL","Gainesville","2880 Nw 13th St",2022-08-11 20:30:06,2022-08-12
-82.389627,29.701175,TRUE,"FL","Gainesville","5110 Nw 43rd St",2022-08-11 20:30:06,2022-08-12
-82.312657,29.652289,FALSE,"FL","Gainesville","1030 E University Ave",2022-08-11 20:30:06,2022-08-12
-82.92362,29.95621,FALSE,"FL","Branford","102 Sw Us Hwy 27",2022-08-11 20:30:06,2022-08-12
-82.337366,29.652479,FALSE,"FL","Gainesville","1206 W University Ave",2022-08-11 20:30:06,2022-08-12
-82.441499,29.689636,FALSE,"FL","Gainesville","9260 Nw 39th Ave",2022-08-11 20:30:06,2022-08-12
-82.407261,29.65914,TRUE,"FL","Gainesville","6003 Newberry Rd",2022-08-11 20:30:06,2022-08-12
-80.915529,29.00497,FALSE,"FL","New Smyrna Beach","1704 S Dixie Fwy",2022-08-11 20:30:06,2022-08-12
-80.943292,29.013691,FALSE,"FL","New Smyrna Bch","1842 Sr 44",2022-08-11 20:30:06,2022-08-12
-83.89055,30.471593,FALSE,"FL","Lamont","5185 S Jefferson",2022-08-11 20:30:06,2022-08-12
-80.99264,29.01343,FALSE,"FL","New Smyrna Beach","3181 Sr 44",2022-08-11 20:30:06,2022-08-12
-82.384161,29.618908,FALSE,"FL","Gainesville","3826 Sw 40th Blvd",2022-08-11 20:30:06,2022-08-12
-82.371589,29.603995,FALSE,"FL","Gainesville","3418 Sw Williston Rd",2022-08-11 20:30:06,2022-08-12
-82.493945,29.654321,FALSE,"FL","Newberry","14124 W Newberry Rd",2022-08-11 20:30:06,2022-08-12
-81.324789,29.087261,FALSE,"FL","Deland","1075 Williamsburg Pl",2022-08-11 20:30:06,2022-08-12
-81.30227,29.061687,FALSE,"FL","Deland","1699 N Woodland Blvd",2022-08-11 20:30:06,2022-08-12
-81.303003,29.054178,TRUE,"FL","North De Land","102 E International Speedway Blvd",2022-08-11 20:30:06,2022-08-12
-84.25006,30.507695,FALSE,"FL","Tallahassee","3438 Thomasville Rd",2022-08-11 20:30:06,2022-08-12
-84.248093,30.500051,FALSE,"FL","Tallahassee","3398 Capital Cir Ne",2022-08-11 20:30:06,2022-08-12
-83.5818,30.097647,FALSE,"FL","Perry","2132 S Us Highway 19",2022-08-11 20:30:06,2022-08-12
-81.298804,28.981691,FALSE,"FL","Deland","2697 Us 17/92",2022-08-11 20:30:06,2022-08-12
-81.252394,28.950626,FALSE,"FL","Deltona","2900 Halifax Crossing Boulevard",2022-08-11 20:30:06,2022-08-12
-81.189842,28.925222,FALSE,"FL","Deltona","2190 Howland Blvd",2022-08-11 20:30:06,2022-08-12
-84.236367,30.475717,FALSE,"FL","Tallahassee","1916 Capital Cir Ne",2022-08-11 20:30:06,2022-08-12
-84.217052,30.463498,FALSE,"FL","Tallahassee","3631 Mahan Dr",2022-08-11 20:30:06,2022-08-12
-84.328582,30.502311,FALSE,"FL","Tallahassee","3819 N Monroe St",2022-08-11 20:30:06,2022-08-12
-84.285017,30.46668,FALSE,"FL","Tallahassee","1944 N Monroe St",2022-08-11 20:30:06,2022-08-12
-81.164827,28.872668,FALSE,"FL","Deltona","131 Howland Blvd",2022-08-11 20:30:06,2022-08-12
-84.231647,30.426608,FALSE,"FL","Tallahassee","2875 Apalachee Pky",2022-08-11 20:30:06,2022-08-12
-81.298236,28.921265,FALSE,"FL","Orange City","2406 Enterprise Rd",2022-08-11 20:30:06,2022-08-12
-84.262316,30.439388,FALSE,"FL","Tallahassee","300 S Magnolia Dr",2022-08-11 20:30:06,2022-08-12
-82.816792,29.613631,FALSE,"FL","Trenton","209 E Wade St",2022-08-11 20:30:06,2022-08-12
-84.293657,30.445152,FALSE,"FL","Tallahassee","672 W Tennessee St",2022-08-11 20:30:06,2022-08-12
-84.236183,30.40207,FALSE,"FL","Tallahassee","3562 Blairstone Rd",2022-08-11 20:30:06,2022-08-12
-84.319943,30.44104,FALSE,"FL","Tallahassee","2026 W Pensacola St",2022-08-11 20:30:06,2022-08-12
-84.281044,30.412145,FALSE,"FL","Tallahassee","2800 S Monroe St",2022-08-11 20:30:06,2022-08-12
-81.280155,28.872941,FALSE,"FL","Deltona","410 Deltona Blvd",2022-08-11 20:30:06,2022-08-12
-84.363986,30.458446,FALSE,"FL","Tallahassee","5052 W Tennessee St",2022-08-11 20:30:06,2022-08-12
-82.063855,29.209029,TRUE,"FL","Ocala","4880 E Silver Springs Blvd",2022-08-11 20:30:06,2022-08-12
-82.190529,29.2663,FALSE,"FL","Ocala","4150 Hwy 326",2022-08-11 20:30:06,2022-08-12
-82.456351,29.385774,FALSE,"FL","Williston","713 W Noble Ave",2022-08-11 20:30:06,2022-08-12
-84.595083,30.587519,FALSE,"FL","Quincy","1422 W Jefferson St",2022-08-11 20:30:06,2022-08-12
-82.14665,29.222684,FALSE,"FL","Ocala","3455 N Pine Ave",2022-08-11 20:30:06,2022-08-12
-82.091871,29.195007,FALSE,"FL","Ocala","3215 E Silver Springs Blvd",2022-08-11 20:31:06,2022-08-12
-80.868239,28.665841,FALSE,"FL","Mims","4305 West Main Street",2022-08-11 20:30:06,2022-08-12
-82.198924,29.21388,TRUE,"FL","Ocala","2600 Nw 46th Terr",2022-08-11 20:30:06,2022-08-12
-82.094153,29.163614,FALSE,"FL","Ocala","3223 Se Maricamp Rd",2022-08-11 20:31:06,2022-08-12
-81.273652,28.81108,FALSE,"FL","Sanford","112 French Ave",2022-08-11 20:30:06,2022-08-12
-82.137839,29.168522,FALSE,"FL","Ocala","2015 S Pine St",2022-08-11 20:30:06,2022-08-12
-82.027418,29.117663,FALSE,"FL","Ocala","7562 Se Maricamp Rd",2022-08-11 20:31:06,2022-08-12
-82.180692,29.186811,FALSE,"FL","Ocala","3595 W Silver Springs Blvd",2022-08-11 20:30:06,2022-08-12
-81.334623,28.812437,FALSE,"FL","Sanford","150 Hickman Dr",2022-08-11 20:30:06,2022-08-12
-80.842644,28.619143,FALSE,"FL","Titusville","3290 Garden St",2022-08-11 20:31:06,2022-08-12
-81.328335,28.802404,FALSE,"FL","Sanford","1601 Rinehart Rd",2022-08-11 20:30:06,2022-08-12
-83.13072,29.636239,FALSE,"FL","Cross City","16228 Sw Highway 19",2022-08-11 20:30:06,2022-08-12
-82.168344,29.159932,FALSE,"FL","Ocala","2827 Sw 27th Ave",2022-08-11 20:30:06,2022-08-12
-82.86456,29.493025,FALSE,"FL","Chiefland","1415 N Young Blvd",2022-08-11 20:31:06,2022-08-12
-81.66621,28.931522,FALSE,"FL","Umatilla","400 Hatfield Dr",2022-08-11 20:31:06,2022-08-12
-82.187227,29.14738,FALSE,"FL","Ocala","4110 Sw 38th Ct",2022-08-11 20:30:06,2022-08-12
-81.358649,28.786838,FALSE,"FL","Lake Mary","2960 International Pkwy",2022-08-11 20:31:06,2022-08-12
-81.286102,28.757496,FALSE,"FL","Sanford","3785 Orlando Dr",2022-08-11 20:31:06,2022-08-12
-80.797795,28.568538,FALSE,"FL","Titusville","3835 S Washington Ave",2022-08-11 20:30:06,2022-08-12
-82.056823,29.059982,FALSE,"FL","Belleview","5515 Se Abshier Blvd",2022-08-11 20:30:06,2022-08-12
-81.351102,28.756756,FALSE,"FL","Lake Mary","4210 W Lake Mary Blvd",2022-08-11 20:30:06,2022-08-12
-80.847325,28.55267,FALSE,"FL","Titusville","3445 Ronald Mcnair Way",2022-08-11 20:31:06,2022-08-12
-81.261957,28.696988,FALSE,"FL","Winter Springs","1200 E Hwy 434",2022-08-11 20:31:06,2022-08-12
-81.180815,28.656619,FALSE,"FL","Oviedo","1605 E Mitchell Hammock Rd",2022-08-11 20:30:06,2022-08-12
-81.327561,28.700479,FALSE,"FL","Longwood","290 N Hwy 17 And 92",2022-08-11 20:30:06,2022-08-12
-81.227944,28.654145,FALSE,"FL","Oviedo","1920 W Sr 426",2022-08-11 20:30:06,2022-08-12
-81.643271,28.823569,FALSE,"FL","Mount Dora","18900 Us Hwy 441",2022-08-11 20:31:06,2022-08-12
-80.770492,28.479592,FALSE,"FL","Port St John","6857 N Us Hwy 1",2022-08-11 20:31:06,2022-08-12
-81.967857,28.961703,FALSE,"FL","Summerfield","17890 S Us Hwy 441",2022-08-11 20:30:06,2022-08-12
-81.360438,28.697519,FALSE,"FL","Longwood","900 W State Route 434",2022-08-11 20:31:06,2022-08-12
-82.255635,29.079698,FALSE,"FL","Ocala","8240 Sr 200",2022-08-11 20:30:06,2022-08-12
-81.685855,28.827153,FALSE,"FL","Eustis","2800 S Bay St",2022-08-11 20:31:06,2022-08-12
-81.929754,28.930143,FALSE,"FL","Lady Lake","452 N Us Hwy 27",2022-08-11 20:31:06,2022-08-12
-81.269069,28.64997,FALSE,"FL","Winter Springs","1325 Tuskawilla Rd",2022-08-11 20:30:06,2022-08-12
-82.160494,29.025985,FALSE,"FL","Ocala","2095 Sw 484",2022-08-11 20:31:06,2022-08-12
-80.611852,28.396663,FALSE,"FL","Cape Canaveral","8780 Astronaut Blvd",2022-08-11 20:30:06,2022-08-12
-81.443712,28.707041,FALSE,"FL","Longwood","3835 Wekiva Springs Rd",2022-08-11 20:30:06,2022-08-12
-81.623735,28.780794,FALSE,"FL","Mount Dora","6601 N Orange Blossom Tr",2022-08-11 20:31:06,2022-08-12
-85.246607,30.782659,FALSE,"FL","Marianna","4194 W Lafayette St",2022-08-11 20:31:06,2022-08-12
-81.3453,28.663729,FALSE,"FL","Fern Park","1415 E State Rd",2022-08-11 20:30:06,2022-08-12
-84.370565,30.194321,FALSE,"FL","Crawfordville","2605 Crawfordville Hwy",2022-08-11 20:30:06,2022-08-12
-81.208303,28.599912,FALSE,"FL","Orlando","4294 N Alafaya Tr",2022-08-11 20:31:06,2022-08-12
-81.260531,28.619122,FALSE,"FL","Oviedo","2849 Clayton Crossing Way",2022-08-11 20:31:06,2022-08-12
-85.184688,30.71701,FALSE,"FL","Marianna","2090 Highway 71",2022-08-11 20:30:06,2022-08-12
-81.129263,28.559685,FALSE,"FL","Orlando","16920 E Colonial",2022-08-11 20:31:06,2022-08-12
-81.323333,28.635005,TRUE,"FL","Casselberry","1241 Sr 436",2022-08-11 20:31:06,2022-08-12
-81.320172,28.632852,FALSE,"FL","Casselberry","1291 Sr 436",2022-08-11 20:30:06,2022-08-12
-81.391743,28.661425,FALSE,"FL","Altamonte Springs","224 W 436 Sr",2022-08-11 20:31:06,2022-08-12
-81.508694,28.708288,FALSE,"FL","Apopka","1681 Rock Springs Rd",2022-08-11 20:31:06,2022-08-12
-81.784662,28.822005,FALSE,"FL","Leesburg","10420 Us Hwy 441 S",2022-08-11 20:30:06,2022-08-12
-82.031202,28.927947,FALSE,"FL","The Villages","4080 Wedgewood Lane",2022-08-11 20:30:06,2022-08-12
-80.608824,28.355375,FALSE,"FL","Cocoa Beach","3920 N Atlantic Ave",2022-08-11 20:31:06,2022-08-12
-81.419696,28.659786,FALSE,"FL","Altamonte Springs","240 S State Rd 434",2022-08-11 20:31:06,2022-08-12
-81.452977,28.671108,TRUE,"FL","Apopka","3141 E 436 Sr",2022-08-11 20:30:06,2022-08-12
-81.197,28.566176,FALSE,"FL","Orlando","12301 E Colonial Dr",2022-08-11 20:31:06,2022-08-12
-81.363154,28.626615,FALSE,"FL","Maitland","228 Orlando Avenue So",2022-08-11 20:30:06,2022-08-12
-80.700537,28.374607,FALSE,"FL","Merritt Island","1000 N Courtenay Blvd",2022-08-11 20:30:06,2022-08-12
-80.764504,28.397644,FALSE,"FL","Cocoa","2200 State Road 524",2022-08-11 20:31:06,2022-08-12
-81.748163,28.784229,FALSE,"FL","Tavares","1965 State Road 19",2022-08-11 20:30:06,2022-08-12
-81.218233,28.56581,FALSE,"FL","Orlando","11250 E Colonial Dr",2022-08-11 20:30:06,2022-08-12
-81.15005,28.538107,FALSE,"FL","Orlando","401 S Avalon Park Blvd",2022-08-11 20:31:06,2022-08-12
-81.234832,28.570266,TRUE,"FL","Orlando","10401 E Colonial Dr",2022-08-11 20:31:06,2022-08-12
-81.304948,28.596753,FALSE,"FL","Winter Park","3162 University Blvd",2022-08-11 20:30:06,2022-08-12
-81.319986,28.601045,FALSE,"FL","Winter Park","2472 Aloma Ave",2022-08-11 20:31:06,2022-08-12
-81.955349,28.865289,FALSE,"FL","The Villages","320 Colony Blvd",2022-08-11 20:30:06,2022-08-12
-81.506546,28.673712,FALSE,"FL","Apopka","233 E Main St",2022-08-11 20:30:06,2022-08-12
-81.541433,28.687926,FALSE,"FL","Apopka","1678 W Orange Blossom Tr",2022-08-11 20:31:06,2022-08-12
-80.740937,28.374597,FALSE,"FL","Cocoa","927 Dixon Blvd",2022-08-11 20:30:06,2022-08-12
-81.202638,28.546324,FALSE,"FL","Orlando","12300 Lake Underhill Rd",2022-08-11 20:31:06,2022-08-12
-81.887029,28.824311,FALSE,"FL","Leesburg","1012 N 14th St",2022-08-11 20:31:06,2022-08-12
-81.287366,28.568811,FALSE,"FL","Orlando","7409 E Colonial",2022-08-11 20:30:06,2022-08-12
-81.395156,28.605507,FALSE,"FL","Orlando","1028 W Lee Rd",2022-08-11 20:31:06,2022-08-12
-81.366653,28.592665,FALSE,"FL","Winter Park","1302 W Fairbanks Ave",2022-08-11 20:31:06,2022-08-12
-81.441938,28.618841,FALSE,"FL","Lockhart","6820 N Orange Blossom Trail",2022-08-11 20:30:06,2022-08-12
-82.454959,29.060341,FALSE,"FL","Dunnellon","11232 N Williams St",2022-08-11 20:31:06,2022-08-12
-80.797751,28.359351,FALSE,"FL","Cocoa","4625 State Rd 520",2022-08-11 20:30:06,2022-08-12
-80.719813,28.328289,TRUE,"FL","Rockledge","1876 S Us Hwy 1",2022-08-11 20:31:06,2022-08-12
-81.28521,28.537369,FALSE,"FL","Orlando","451 S Goldenrod Rd",2022-08-11 20:31:06,2022-08-12
-82.090933,28.872157,FALSE,"FL","Wildwood","809 E. Sr44",2022-08-11 20:30:06,2022-08-12
-85.382498,30.748781,FALSE,"FL","Cottondale","2510 Us Hwy 231",2022-08-11 20:31:06,2022-08-12
-81.348792,28.553767,FALSE,"FL","Orlando","2701 E Colonial Dr",2022-08-11 20:30:06,2022-08-12
-81.241792,28.509515,FALSE,"FL","Orlando","10026 Curry Ford Rd",2022-08-11 20:31:06,2022-08-12
-81.415653,28.576735,FALSE,"FL","Orlando","2503 N John Young Pkwy",2022-08-11 20:31:06,2022-08-12
-81.309824,28.524702,FALSE,"FL","Orlando","1505 S Semoran Blvd",2022-08-11 20:30:06,2022-08-12
-81.453128,28.577491,FALSE,"FL","Orlando","5218 Silver Star Rd",2022-08-11 20:31:06,2022-08-12
-80.722716,28.292565,FALSE,"FL","Rockledge","3844 Murrel Rd",2022-08-11 20:30:06,2022-08-12
-81.875893,28.746857,FALSE,"FL","Leesburg","27422 Us Hwy 27",2022-08-11 20:31:06,2022-08-12
-81.474716,28.577974,FALSE,"FL","Orlando","6927 Silver Star Rd",2022-08-11 20:31:06,2022-08-12
-81.415035,28.55332,FALSE,"FL","Orlando","3005 West Colonial Drive",2022-08-11 20:30:06,2022-08-12
-81.551807,28.602366,FALSE,"FL","Ocoee","2281 Ocoee Apopka Rd",2022-08-11 20:30:06,2022-08-12
-81.310885,28.50317,FALSE,"FL","Orlando","4066 Semoran Blvd",2022-08-11 20:31:06,2022-08-12
-81.397699,28.531839,FALSE,"FL","Orlando","830 S Orange Blossom Trail",2022-08-11 20:30:06,2022-08-12
-81.464259,28.552641,FALSE,"FL","Orlando","6195 W Colonial Dr",2022-08-11 20:31:06,2022-08-12
-81.517932,28.574185,FALSE,"FL","Ocoee","1620 E Silver Star Rd",2022-08-11 20:31:06,2022-08-12
-81.37669,28.514429,FALSE,"FL","Orlando","2504 S Orange Ave",2022-08-11 20:30:06,2022-08-12
-80.737222,28.268241,FALSE,"FL","Rockledge","5370 Stadium Pkwy",2022-08-11 20:31:06,2022-08-12
-81.309352,28.481604,FALSE,"FL","Orlando","5685 South Semoran Blvd",2022-08-11 20:30:06,2022-08-12
-85.048142,30.442939,FALSE,"FL","Blountstown","20495 W Central Ave",2022-08-11 20:31:06,2022-08-12
-81.272524,28.462001,FALSE,"FL","Orlando","7055 Narcoossee Rd",2022-08-11 20:31:06,2022-08-12
-81.330358,28.481361,FALSE,"FL","Orlando","5175 S Conway Rd",2022-08-11 20:30:06,2022-08-12
-81.507462,28.551365,FALSE,"FL","Ocoee","9010 W Colonial Dr",2022-08-11 20:30:06,2022-08-12
-81.422793,28.508481,FALSE,"FL","Orlando","3804 Lb Mcleod Rd",2022-08-11 20:30:06,2022-08-12
-81.397458,28.496001,FALSE,"FL","Orlando","4640 S Orange Blossom Tr",2022-08-11 20:31:06,2022-08-12
-81.470612,28.524465,FALSE,"FL","Orlando","1411 S Hiawassee Road",2022-08-11 20:31:06,2022-08-12
-85.541743,30.764147,FALSE,"FL","Chipley","1291 Main St",2022-08-11 20:30:06,2022-08-12
-81.544449,28.552063,FALSE,"FL","Ocoee","11131 W Colonial Drive",2022-08-11 20:30:06,2022-08-12
-81.462805,28.515442,TRUE,"FL","Orlando","2500 S Kirkman Rd",2022-08-11 20:31:06,2022-08-12
-80.715621,28.230928,FALSE,"FL","Melbourne","8280 Wickham Rd",2022-08-11 20:30:06,2022-08-12
-80.674479,28.216064,FALSE,"FL","Melbourne","6420 N Wickham Rd",2022-08-11 20:30:06,2022-08-12
-80.724186,28.233119,TRUE,"FL","Melbourne","8500 N Wickham Rd",2022-08-11 20:31:06,2022-08-12
-81.459638,28.511426,FALSE,"FL","Orlando","2944 S Kirkman Rd",2022-08-11 20:31:06,2022-08-12
-80.59299,28.184612,FALSE,"FL","Satellite Beach","1080 Highway A1a",2022-08-11 20:30:06,2022-08-12
-81.41685,28.488136,TRUE,"FL","Orlando","5107 S John Young Parkway",2022-08-11 20:31:06,2022-08-12
-81.429577,28.491527,FALSE,"FL","Orlando","4075 Millenia Blvd",2022-08-11 20:31:06,2022-08-12
-81.336865,28.45208,FALSE,"FL","Orlando","3713 Mc Coy Rd",2022-08-11 20:30:06,2022-08-12
-81.583083,28.550653,FALSE,"FL","Winter Garden","13494 W Colonial Dr",2022-08-11 20:31:06,2022-08-12
-81.242338,28.412532,FALSE,"FL","Orlando","10701 Narcoossee Rd",2022-08-11 20:31:06,2022-08-12
-81.397104,28.473261,FALSE,"FL","Orlando","5890 S Orange Blossom Trail",2022-08-11 20:30:06,2022-08-12
-81.301579,28.435455,FALSE,"FL","Orlando","Orlando Airport Airside 2",2022-08-11 20:31:06,2022-08-12
-81.308055,28.431169,FALSE,"FL","Orlando","9303 Jeff Fuqua Blvd",2022-08-11 20:31:06,2022-08-12
-81.364791,28.452618,FALSE,"FL","Orlando","8060 S Orange Ave",2022-08-11 20:31:06,2022-08-12
-81.459479,28.484031,FALSE,"FL","Orlando","5400 Kirkman Rd",2022-08-11 20:31:06,2022-08-12
-81.451068,28.469297,FALSE,"FL","Orlando","5401 Altamira Dr",2022-08-11 20:31:06,2022-08-12
-81.751548,28.591558,FALSE,"FL","Minneola","901 N Us Hwy 27",2022-08-11 20:31:06,2022-08-12
-81.58646,28.520433,FALSE,"FL","Winter Garden","3325 Daniels Rd",2022-08-11 20:31:06,2022-08-12
-80.582761,28.138241,FALSE,"FL","Melbourne","1005 Eau Gallie Cswy",2022-08-11 20:31:06,2022-08-12
-81.402852,28.441261,FALSE,"FL","Orlando","8475 S Orange Blossom Trail",2022-08-11 20:31:06,2022-08-12
-81.424506,28.44753,FALSE,"FL","Orlando","8101 S John Young Pky",2022-08-11 20:31:06,2022-08-12
-82.327446,28.832831,FALSE,"FL","Inverness","240 S Hwy 41",2022-08-11 20:31:06,2022-08-12
-81.426848,28.446869,FALSE,"FL","Orlando","8175 S John Young Pkwy",2022-08-11 20:31:06,2022-08-12
-82.392787,28.857618,FALSE,"FL","Inverness","2461 E Gulf To Lake Hwy",2022-08-11 20:31:06,2022-08-12
-82.387769,28.85404,FALSE,"FL","Inverness","2801 East Gulf To Lake Hwy",2022-08-11 20:31:06,2022-08-12
-81.705571,28.54723,FALSE,"FL","Clermont","2640 E Highway 50",2022-08-11 20:31:06,2022-08-12
-82.485416,28.891805,FALSE,"FL","Lecanto","1988 N Lecanto Hwy",2022-08-11 20:31:06,2022-08-12
-81.471428,28.450466,FALSE,"FL","Orlando","6875 Sandlake Rd",2022-08-11 20:31:06,2022-08-12
-81.480186,28.449599,FALSE,"FL","Orlando","7344 W Sand Lake Rd",2022-08-11 20:31:06,2022-08-12
-81.233968,28.349284,FALSE,"FL","Orlando","14902 Narcoossee Road",2022-08-11 20:31:06,2022-08-12
-85.684073,30.769754,FALSE,"FL","Bonifay","2010 S Waukesha St",2022-08-11 20:31:06,2022-08-12
-80.67219,28.139154,FALSE,"FL","Melbourne","1980 Wickham Rd",2022-08-11 20:31:06,2022-08-12
-81.476551,28.439873,FALSE,"FL","Orlando","8990 Turkey Lake Road",2022-08-11 20:31:06,2022-08-12
-81.744364,28.547484,FALSE,"FL","Clermont","799 E Highway 50",2022-08-11 20:31:06,2022-08-12
-80.639082,28.122112,FALSE,"FL","Melbourne","1200 Sarno Rd",2022-08-11 20:31:06,2022-08-12
-81.461309,28.423817,FALSE,"FL","Orlando","9814 International Dr",2022-08-11 20:31:06,2022-08-12
-81.405171,28.399988,FALSE,"FL","Orlando","11382 Us Hwy 441",2022-08-11 20:31:06,2022-08-12
-81.450275,28.407458,FALSE,"FL","Orlando","5498 Central Florida Pkwy",2022-08-11 20:31:06,2022-08-12
-81.366263,28.371838,FALSE,"FL","Orlando","13401 Landstar Blvd",2022-08-11 20:31:06,2022-08-12
-82.587662,28.899521,FALSE,"FL","Crystal River","625 Ne Us Highway 19",2022-08-11 20:31:06,2022-08-12
-81.560998,28.447877,FALSE,"FL","Windermere","7836 Winter Garden Vineland Rd",2022-08-11 20:31:06,2022-08-12
-80.622757,28.084596,FALSE,"FL","Melbourne","25 W Hibiscus Blvd",2022-08-11 20:31:06,2022-08-12
-81.858959,28.561903,FALSE,"FL","Groveland","460 W Broad St",2022-08-11 20:31:06,2022-08-12
-80.6721,28.10017,FALSE,"FL","West Melbourne","445 S Wickham Rd",2022-08-11 20:31:06,2022-08-12
-81.718434,28.50077,FALSE,"FL","Clermont","4307 S Highway 27",2022-08-11 20:31:06,2022-08-12
-82.139993,28.668141,FALSE,"FL","Bushnell","2195 W C-48",2022-08-11 20:31:06,2022-08-12
-80.66174,28.079293,FALSE,"FL","West Melbourne","2450 W New Haven Ave",2022-08-11 20:31:06,2022-08-12
-81.488983,28.388908,FALSE,"FL","Orlando","8223 Vineland Avenue",2022-08-11 20:31:06,2022-08-12
-81.423117,28.361105,FALSE,"FL","Orlando","14001 Towne Loop Blvd",2022-08-11 20:31:06,2022-08-12
-81.388424,28.3411,FALSE,"FL","Kissimmee","1305 E Osceola Pkwy",2022-08-11 20:31:06,2022-08-12
-81.340113,28.31927,FALSE,"FL","Kissimmee","2576 Simpson Road",2022-08-11 20:31:06,2022-08-12
-81.5048,28.382358,FALSE,"FL","Orlando","12549 State Road 535",2022-08-11 20:31:06,2022-08-12
-81.431404,28.341356,FALSE,"FL","Kissimmee","2704 W Osceola Pkwy",2022-08-11 20:31:06,2022-08-12
-80.621182,28.03445,FALSE,"FL","Palm Bay","4701 Babcock St Ne",2022-08-11 20:31:06,2022-08-12
-80.664722,28.036192,FALSE,"FL","Melbourne","235 Palm Bay Rd W",2022-08-11 20:31:06,2022-08-12
-81.358695,28.288152,FALSE,"FL","Kissimmee","2110 E Irlo Bronson Memorial Hwy",2022-08-11 20:31:06,2022-08-12
-81.41157,28.304957,FALSE,"FL","Kissimmee","719 W Vine St",2022-08-11 20:31:06,2022-08-12
-82.577049,28.80757,FALSE,"FL","Homosassa","3740 S Suncoast Blvd",2022-08-11 20:31:06,2022-08-12
-81.471552,28.320317,FALSE,"FL","Kissimmee","4706 W Irlo Bronson Memorial Pky",2022-08-11 20:31:06,2022-08-12
-81.513709,28.333526,FALSE,"FL","Kissimmee","5725 W Irlo Bronson Memorial Pky",2022-08-11 20:31:06,2022-08-12
-81.300657,28.246524,FALSE,"FL","Saint Cloud","2800 13th St",2022-08-11 20:31:06,2022-08-12
-80.633516,27.999126,FALSE,"FL","Palm Bay","1179 Malabar Rd Ne",2022-08-11 20:31:06,2022-08-12
-81.458823,28.301731,FALSE,"FL","Kissimmee","4444 W Vine St",2022-08-11 20:31:06,2022-08-12
-81.576837,28.348866,FALSE,"FL","Lake Buena Vista","1596 W Buena Vista Dr",2022-08-11 20:31:06,2022-08-12
-80.641804,27.996698,TRUE,"FL","Palm Bay","1040 Malabar Rd",2022-08-11 20:31:06,2022-08-12
-80.673163,27.998667,FALSE,"FL","Palm Bay","132 Malabar Rd Sw",2022-08-11 20:31:06,2022-08-12
-81.591816,28.336675,FALSE,"FL","Kissimmee","7627 W Irlo Bronson Memorial Pkwy",2022-08-11 20:31:06,2022-08-12
-81.628787,28.346173,FALSE,"FL","Kissimmee","8530 W Irlo Bronson Memorial Pky",2022-08-11 20:31:06,2022-08-12
-81.434171,28.262627,FALSE,"FL","Kissimmee","3191 S John Young Parkway",2022-08-11 20:31:06,2022-08-12
-81.676267,28.351693,FALSE,"FL","Clermont","16832 Corner Center Dr",2022-08-11 20:31:06,2022-08-12
-81.293286,28.196496,FALSE,"FL","St. Cloud","3344 Canoe Creek Rd",2022-08-11 20:31:06,2022-08-12
-81.564817,28.303323,TRUE,"FL","Kissimmee","1720 Celebration Boulevard",2022-08-11 20:31:06,2022-08-12
-82.553329,28.722819,FALSE,"FL","Homosassa","9566 S. Suncoast Boulevard",2022-08-11 20:31:06,2022-08-12
-80.656868,27.949828,FALSE,"FL","Palm Bay","3475 Bayside Lake Blvd Se",2022-08-11 20:31:06,2022-08-12
-81.593378,28.259124,TRUE,"FL","Davenport","8006 Osceola Polk Line Rd",2022-08-11 20:31:06,2022-08-12
-81.618614,28.262183,FALSE,"FL","Champions Gate","8279 Champions Gate Blvd",2022-08-11 20:31:06,2022-08-12
-82.233312,28.522422,FALSE,"FL","Brooksville","31038 Cortez Blvd",2022-08-11 20:31:06,2022-08-12
-80.485655,27.837554,FALSE,"FL","Sebastian","13395 Us Hwy 1",2022-08-11 20:31:06,2022-08-12
-81.439572,28.18093,FALSE,"FL","Kissimmee","3845 Pleasant Hill Rd",2022-08-11 20:31:06,2022-08-12
-81.654376,28.23855,FALSE,"FL","Davenport","44400 Us Hwy 27n",2022-08-11 20:31:06,2022-08-12
-82.399619,28.546463,FALSE,"FL","Brooksville","845 S Broad St",2022-08-11 20:31:06,2022-08-12
-81.471691,28.143477,TRUE,"FL","Kissimmee","385 Cypress Parkway",2022-08-11 20:31:06,2022-08-12
-82.40741,28.537042,FALSE,"FL","Brooksville","7305 Broad St",2022-08-11 20:31:06,2022-08-12
-80.548726,27.76699,FALSE,"FL","Vero Beach","9495 108th Ave",2022-08-11 20:31:06,2022-08-12
-86.123226,30.687941,FALSE,"FL","Defuniak Springs","2370 Us Hwy 331 S",2022-08-11 20:31:06,2022-08-12
-82.509291,28.533065,TRUE,"FL","Brooksville","13100 Cortez Blvd",2022-08-11 20:31:06,2022-08-12
-82.505602,28.531062,FALSE,"FL","Brooksville","13300 Cortez Blvd",2022-08-11 20:31:06,2022-08-12
-80.411647,27.688992,FALSE,"FL","Vero Beach","5280 Us Hwy 1",2022-08-11 20:31:06,2022-08-12
-81.6403,28.126471,FALSE,"FL","Haines City","36204 Us Hwy 27 N",2022-08-11 20:31:06,2022-08-12
-82.478885,28.481071,FALSE,"FL","Spring Hill","15050 Spring Hill Dr",2022-08-11 20:31:06,2022-08-12
-82.186942,28.347804,TRUE,"FL","Dade City","13026 Hwy 301",2022-08-11 20:31:06,2022-08-12
-81.635102,28.105106,FALSE,"FL","Haines City","317 Hinson Ave",2022-08-11 20:31:06,2022-08-12
-82.540485,28.492125,FALSE,"FL","Spring Hill","4166 Mariner Blvd",2022-08-11 20:31:06,2022-08-12
-80.389677,27.636812,FALSE,"FL","Vero Beach","1925 Us 1",2022-08-11 20:31:06,2022-08-12
-81.802103,28.155962,FALSE,"FL","Polk City","1801 State Road 559",2022-08-11 20:31:06,2022-08-12
-82.541818,28.461702,FALSE,"FL","Spring Hill","11055 Springhill Dr",2022-08-11 20:32:06,2022-08-12
-85.649571,30.232222,FALSE,"FL","Lynn Haven","1710 S Hwy 77",2022-08-11 20:32:06,2022-08-12
-80.448234,27.638297,FALSE,"FL","Vero Beach","5875 20th Street",2022-08-11 20:31:06,2022-08-12
-86.349258,30.734317,FALSE,"FL","Defuniak Springs","17750 State Highway 285 S",2022-08-11 20:31:06,2022-08-12
-80.513949,27.639883,FALSE,"FL","Vero Beach","9080 20th Street",2022-08-11 20:31:06,2022-08-12
-85.592748,30.161214,TRUE,"FL","Panama City","725 N Tyndall Pky",2022-08-11 20:32:06,2022-08-12
-80.377768,27.588802,FALSE,"FL","Vero Beach","754 S Us 1",2022-08-11 20:31:06,2022-08-12
-82.62061,28.467013,FALSE,"FL","Spring Hill","2350 Commercial Way",2022-08-11 20:31:06,2022-08-12
-82.55036,28.434438,FALSE,"FL","Hudson","10319 County Line Road",2022-08-11 20:32:06,2022-08-12
-82.190895,28.269352,FALSE,"FL","Zephyrhills","Us Hwy 301 & Green Slope (W*M #706)",2022-08-11 20:32:06,2022-08-12
-85.591644,30.146441,FALSE,"FL","Panama City","121 N Tyndall Pkwy",2022-08-11 20:31:06,2022-08-12
-85.650547,30.183726,FALSE,"FL","Panama City","1921 Cove Blvd",2022-08-11 20:32:06,2022-08-12
-82.631307,28.458311,FALSE,"FL","Spring Hill","1485 Commercial Way",2022-08-11 20:32:06,2022-08-12
-85.676796,30.189396,FALSE,"FL","Panama City","1025 W 23rd St",2022-08-11 20:32:06,2022-08-12
-81.63263,28.016732,FALSE,"FL","Dundee","28064 Us Hwy 27",2022-08-11 20:31:06,2022-08-12
-82.189309,28.246177,FALSE,"FL","Zephyrhills","6042 Gall Blvd",2022-08-11 20:31:06,2022-08-12
-85.660565,30.161386,FALSE,"FL","Panama City","717 Harrison Ave",2022-08-11 20:31:06,2022-08-12
-86.123092,30.487845,FALSE,"FL","Freeport","16392 Us Highway 331 S.",2022-08-11 20:32:06,2022-08-12
-81.776661,28.05352,TRUE,"FL","Auburndale","498 Havendale Blvd",2022-08-11 20:31:06,2022-08-12
-85.708451,30.181083,FALSE,"FL","Panama City","3608 Highway 98 W",2022-08-11 20:31:06,2022-08-12
-81.946084,28.113559,FALSE,"FL","Lakeland","5525 Walt Loop Rd",2022-08-11 20:32:06,2022-08-12
-81.733615,28.025646,TRUE,"FL","Winter Haven","245 6th St Nw",2022-08-11 20:31:06,2022-08-12
-81.974159,28.123464,FALSE,"FL","Lakeland","6330 Us Highway 98 N",2022-08-11 20:31:06,2022-08-12
-81.815898,28.056507,FALSE,"FL","Auburndale","2207 Us Hwy 92",2022-08-11 20:32:06,2022-08-12
-86.558689,30.79226,FALSE,"FL","Crestview","1300 N Ferdon Blvd",2022-08-11 20:32:06,2022-08-12
-81.714194,28.003693,FALSE,"FL","Winter Haven","893 Cypress Gardens Road",2022-08-11 20:31:06,2022-08-12
-80.397739,27.521593,FALSE,"FL","Fort Pierce","4878 N Kings Hwy",2022-08-11 20:31:06,2022-08-12
-81.661283,27.977864,FALSE,"FL","Winter Haven","6890 Cypress Gardens Blvd",2022-08-11 20:32:06,2022-08-12
-81.622879,27.960057,FALSE,"FL","Lake Wales","2500 Ridge Way",2022-08-11 20:32:06,2022-08-12
-82.247871,28.219359,FALSE,"FL","Wesley Chapel","34367 Sr 54",2022-08-11 20:31:06,2022-08-12
-85.753704,30.161255,FALSE,"FL","Panama City","2319 Thomas Dr",2022-08-11 20:31:06,2022-08-12
-81.972248,28.086273,FALSE,"FL","Lakeland","3420 Us Hwy 98 N",2022-08-11 20:31:06,2022-08-12
-86.576791,30.763057,FALSE,"FL","Crestview","302 W James Lee Blvd W",2022-08-11 20:32:06,2022-08-12
-81.781876,28.004422,FALSE,"FL","Winter Haven","2019 Spirit Lake Rd",2022-08-11 20:32:06,2022-08-12
-81.962883,28.078633,FALSE,"FL","Lakeland","2815 N Us Hwy 98",2022-08-11 20:31:06,2022-08-12
-81.907513,28.04838,FALSE,"FL","Lakeland","2606 Hwy 92 E",2022-08-11 20:32:06,2022-08-12
-85.801986,30.178418,FALSE,"FL","Panama City Beach","10628 Front Beach Road",2022-08-11 20:32:06,2022-08-12
-82.35848,28.238212,FALSE,"FL","Wesley Chapel","27643 State Rd 54 W",2022-08-11 20:31:06,2022-08-12
-85.804864,30.179866,TRUE,"FL","Panama City","10270 Front Beach Rd",2022-08-11 20:31:06,2022-08-12
-85.865976,30.220156,FALSE,"FL","Panama City Beach","15497 Panama City Beach Pkwy",2022-08-11 20:32:06,2022-08-12
-81.950658,28.054668,FALSE,"FL","Lakeland","715 East Memorial Blvd",2022-08-11 20:31:06,2022-08-12
-81.556428,27.893637,FALSE,"FL","Lake Wales","1978 State Route 60",2022-08-11 20:32:06,2022-08-12
-86.567053,30.728647,TRUE,"FL","Crestview","3201 S Ferdon Blvd",2022-08-11 20:32:06,2022-08-12
-85.887321,30.221703,FALSE,"FL","Panama City","16990 Front Beach Rd",2022-08-11 20:31:06,2022-08-12
-80.327501,27.454204,TRUE,"FL","Fort Pierce","615 N Federal Hwy",2022-08-11 20:32:06,2022-08-12
-82.480625,28.273305,FALSE,"FL","Land O'Lakes","8000 Land O'Lake Boulevard",2022-08-11 20:32:06,2022-08-12
-81.598725,27.900254,FALSE,"FL","Lake Wales","416 W Central Ave",2022-08-11 20:31:06,2022-08-12
-85.305504,29.816115,FALSE,"FL","Port Saint Joe","115 W Highway 98",2022-08-11 20:32:06,2022-08-12
-80.340267,27.443895,FALSE,"FL","Fort Pierce","1612 Delaware Avenue",2022-08-11 20:32:06,2022-08-12
-81.924537,28.022972,FALSE,"FL","Lakeland","1715 Bartow Road",2022-08-11 20:31:06,2022-08-12
-82.658396,28.331619,FALSE,"FL","Hudson","9441 St Rd 52",2022-08-11 20:32:06,2022-08-12
-80.325307,27.422532,FALSE,"FL","Ft Pierce","2524 S 4th St",2022-08-11 20:31:06,2022-08-12
-81.97453,28.026355,FALSE,"FL","Lakeland","1211 Arianna St",2022-08-11 20:31:06,2022-08-12
-82.354355,28.182435,FALSE,"FL","Wesley Chapel","1733 Bruce B Downs Blvd",2022-08-11 20:32:06,2022-08-12
-81.957398,28.011547,FALSE,"FL","Lakeland","2835 S Florida Ave",2022-08-11 20:31:06,2022-08-12
-82.391646,28.193625,FALSE,"FL","Lutz","2609 Creek Grass Way",2022-08-11 20:31:06,2022-08-12
-82.699863,28.330926,FALSE,"FL","Port Richey","11929 Us Hwy 19",2022-08-11 20:32:06,2022-08-12
-81.879011,27.968064,FALSE,"FL","Lakeland","4220 Clubhouse Rd",2022-08-11 20:32:06,2022-08-12
-82.055466,28.034135,FALSE,"FL","Lakeland","5325 Frontage Rd S",2022-08-11 20:31:06,2022-08-12
-80.395701,27.41301,FALSE,"FL","Fort Pierce","7001 Okeechobee Road",2022-08-11 20:32:06,2022-08-12
-80.400075,27.413346,FALSE,"FL","Fort Pierce","7300 W Okeechobee Rd",2022-08-11 20:31:06,2022-08-12
-82.625175,28.274113,FALSE,"FL","New Port Richey","11367 Ridge Rd",2022-08-11 20:31:06,2022-08-12
-82.353814,28.14612,FALSE,"FL","Tampa","19080 Bruce B Downs Blvd",2022-08-11 20:32:06,2022-08-12
-81.95917,27.9779,FALSE,"FL","Lakeland","4805 S Florida Ave",2022-08-11 20:32:06,2022-08-12
-82.676365,28.290239,FALSE,"FL","New Port Richey","9121 Little Road",2022-08-11 20:31:06,2022-08-12
-82.465013,28.192821,FALSE,"FL","Land O' Lakes","2420 Land Olakes Blvd",2022-08-11 20:31:06,2022-08-12
-81.925448,27.953321,TRUE,"FL","Lakeland","2210 Hwy 540a",2022-08-11 20:32:06,2022-08-12
-81.842888,27.908117,FALSE,"FL","Bartow","1470 N Broadway",2022-08-11 20:31:06,2022-08-12
-82.717366,28.281591,FALSE,"FL","Port Richey","8527 Us 19 N",2022-08-11 20:32:06,2022-08-12
-86.414823,30.483041,FALSE,"FL","Niceville","4570 Hwy 20",2022-08-11 20:31:06,2022-08-12
-82.150616,28.02523,FALSE,"FL","Plant City","2601 Thonotosassa Rd",2022-08-11 20:32:06,2022-08-12
-86.468533,30.517142,FALSE,"FL","Niceville","1090 E John Sims Pkwy",2022-08-11 20:31:06,2022-08-12
-80.356686,27.354269,FALSE,"FL","Port Saint Lucie","5435 St James Dr",2022-08-11 20:32:06,2022-08-12
-82.379296,28.117979,FALSE,"FL","Tampa","5101 Pointe Of Tampa Way",2022-08-11 20:32:06,2022-08-12
-82.546329,28.187808,FALSE,"FL","Odessa","16250 Sr 54",2022-08-11 20:31:06,2022-08-12
-81.970367,27.933304,FALSE,"FL","Mulberry","6900 N Church Ave",2022-08-11 20:31:06,2022-08-12
-82.666477,28.235276,FALSE,"FL","New Port Richey","8937 Rancho Del Rio Drive",2022-08-11 20:32:06,2022-08-12
-81.987159,27.938878,FALSE,"FL","Lakeland","1805 Shepherd Rd",2022-08-11 20:32:06,2022-08-12
-81.530961,27.756293,FALSE,"FL","Frostproof","705 N Scenic Hwy",2022-08-11 20:31:06,2022-08-12
-82.463355,28.141908,FALSE,"FL","Lutz","106 Crystal Grove Blvd",2022-08-11 20:31:06,2022-08-12
-82.122105,27.993013,FALSE,"FL","Plant City","2001 Redman Pkwy",2022-08-11 20:32:06,2022-08-12
-80.319852,27.326492,FALSE,"FL","Port St. Lucie","7626 S Federal Hwy",2022-08-11 20:32:06,2022-08-12
-82.636816,28.194388,FALSE,"FL","Trinity","10727 Sr 54",2022-08-11 20:32:06,2022-08-12
-82.72857,28.236125,FALSE,"FL","New Port Richey","5309 Us Hwy 19s",2022-08-11 20:31:06,2022-08-12
-82.245165,28.02105,FALSE,"FL","Dover","4650 Mcintosh Rd",2022-08-11 20:31:06,2022-08-12
-82.694547,28.216666,FALSE,"FL","New Port Richey","7226 State Road 54",2022-08-11 20:31:06,2022-08-12
-82.501692,28.126898,FALSE,"FL","Lutz","17757 N Dale Mabry",2022-08-11 20:31:06,2022-08-12
-81.972366,27.894545,FALSE,"FL","Mulberry","205 East Canal St",2022-08-11 20:31:06,2022-08-12
-86.384971,30.385841,FALSE,"FL","Destin","12830 Us Hwy 98 W",2022-08-11 20:32:06,2022-08-12
-80.402294,27.315178,FALSE,"FL","Port Saint Lucie","1675 St Lucie West Blvd",2022-08-11 20:31:06,2022-08-12
-80.405492,27.310904,FALSE,"FL","Port Saint Lucie","1750 Sw Saint Lucie West Blvd",2022-08-11 20:32:06,2022-08-12
-82.460441,28.087678,FALSE,"FL","Tampa","104 W Bearss Ave",2022-08-11 20:31:06,2022-08-12
-82.393013,28.055392,FALSE,"FL","Tampa","11707 N 56th St",2022-08-11 20:32:06,2022-08-12
-82.433505,28.068766,FALSE,"FL","Tampa","2205 E Fletcher Ave",2022-08-11 20:32:06,2022-08-12
-80.318807,27.271513,FALSE,"FL","Port Saint Lucie","1080 Se Port St Lucie",2022-08-11 20:31:06,2022-08-12
-82.502885,28.095809,FALSE,"FL","Tampa","15698 N Dale Mabry",2022-08-11 20:32:06,2022-08-12
-82.740409,28.20105,FALSE,"FL","Holiday","2909 Us Hwy 19 N",2022-08-11 20:32:06,2022-08-12
-80.272764,27.245049,FALSE,"FL","Jensen Beach","3546 Nw Federal Hwy",2022-08-11 20:31:06,2022-08-12
-82.468639,28.068535,FALSE,"FL","Tampa","926 W Fletcher Ave",2022-08-11 20:31:06,2022-08-12
-82.450095,28.055029,FALSE,"FL","Tampa","920 E Fowler Ave",2022-08-11 20:32:06,2022-08-12
-82.285408,27.981209,FALSE,"FL","Seffner","610 E Dr Martin Luther King Jr",2022-08-11 20:32:06,2022-08-12
-82.422232,28.032253,FALSE,"FL","Tampa","3411 Busch Blvd",2022-08-11 20:31:06,2022-08-12
-82.543282,28.082845,TRUE,"FL","Tampa","5393 Ehrlich Rd",2022-08-11 20:31:06,2022-08-12
-80.401137,27.264145,FALSE,"FL","Port Saint Lucie","1740 Sw Gatlin Blvd",2022-08-11 20:31:06,2022-08-12
-86.480804,30.389302,FALSE,"FL","Destin","895 Harbor Blvd",2022-08-11 20:32:06,2022-08-12
-80.429657,27.271577,FALSE,"FL","Port Saint Lucie","10604 Village Pkwy",2022-08-11 20:32:06,2022-08-12
-80.404786,27.262031,TRUE,"FL","Port Saint Lucie","1850 Sw Gatlin Blvd",2022-08-11 20:31:06,2022-08-12
-82.394082,28.0115,FALSE,"FL","Tampa","6906 N 56th St",2022-08-11 20:32:06,2022-08-12
-80.376296,27.24977,FALSE,"FL","Port Saint Lucie","3199 Sw Port Saint Lucie Blvd",2022-08-11 20:32:06,2022-08-12
-82.579599,28.085459,FALSE,"FL","Odessa","8506 Gunn Hwy",2022-08-11 20:31:06,2022-08-12
-81.801123,27.75455,FALSE,"FL","Fort Meade","200 N Charleston Ave",2022-08-11 20:32:06,2022-08-12
-82.253153,27.93839,FALSE,"FL","Valrico","2050 State Rte 60 E",2022-08-11 20:32:06,2022-08-12
-82.505389,28.045112,FALSE,"FL","Tampa","10410 N Dale Mabry",2022-08-11 20:32:06,2022-08-12
-86.580299,30.441962,FALSE,"FL","Shalimar","1189 Eglin Pky",2022-08-11 20:31:06,2022-08-12
-82.459846,28.023042,FALSE,"FL","Tampa","8214 N Florida Ave",2022-08-11 20:32:06,2022-08-12
-82.552117,28.061746,FALSE,"FL","Tampa","6192 Gunn Hwy",2022-08-11 20:31:06,2022-08-12
-82.570694,28.065494,FALSE,"FL","Tampa","8002 Citrus Park Dr",2022-08-11 20:32:06,2022-08-12
-82.74109,28.142238,FALSE,"FL","Tarpon Springs","40728 Us Hwy 19 North",2022-08-11 20:32:06,2022-08-12
-80.250259,27.189291,FALSE,"FL","Stuart","970 Se Federal Hwy",2022-08-11 20:31:06,2022-08-12
-82.484577,28.025582,FALSE,"FL","Tampa","8402 N Armenia Ave",2022-08-11 20:32:06,2022-08-12
-82.386834,27.981066,FALSE,"FL","Tampa","6013 E Dr Martin Luther",2022-08-11 20:32:06,2022-08-12
-82.291666,27.938259,FALSE,"FL","Brandon","502 W Brandon Blvd",2022-08-11 20:32:06,2022-08-12
-82.438587,27.996672,FALSE,"FL","Tampa","1908 E Hillsborough Ave",2022-08-11 20:32:06,2022-08-12
-86.637515,30.456252,FALSE,"FL","Wright","1083 N Beal Pky",2022-08-11 20:32:06,2022-08-12
-82.336503,27.943759,FALSE,"FL","Tampa","10019 Adamo Dr",2022-08-11 20:32:06,2022-08-12
-80.225557,27.162194,FALSE,"FL","Stuart","3600 Se Federal Hwy",2022-08-11 20:32:06,2022-08-12
-80.218622,27.156973,TRUE,"FL","Stuart","4001 Se Federal Hwy",2022-08-11 20:32:06,2022-08-12
-82.504538,28.008415,FALSE,"FL","Tampa","6717 N Dale Mabry Hwy",2022-08-11 20:32:06,2022-08-12
-82.402387,27.962125,FALSE,"FL","Tampa","2006 50th St",2022-08-11 20:32:06,2022-08-12
-86.604853,30.414264,FALSE,"FL","Fort Walton Beach","31 Eglin Parkway Ne",2022-08-11 20:32:06,2022-08-12
-82.325395,27.925332,FALSE,"FL","Brandon","11110 Causeway Blvd",2022-08-11 20:32:06,2022-08-12
-82.454908,27.981131,FALSE,"FL","Tampa","501 E Dr M L K Jr Dr",2022-08-11 20:32:06,2022-08-12
-82.323329,27.923815,FALSE,"FL","Brandon","11212 Causway Blvd",2022-08-11 20:32:06,2022-08-12
-80.29263,27.17189,FALSE,"FL","Palm City","2900 Sw Martin Downs Rd",2022-08-11 20:32:06,2022-08-12
-82.626092,28.056234,FALSE,"FL","Tampa","12205 W Linebaugh Avenue",2022-08-11 20:32:06,2022-08-12
-82.368306,27.940415,FALSE,"FL","Tampa","1002 S 78th St",2022-08-11 20:32:06,2022-08-12
-82.561941,28.025424,FALSE,"FL","Tampa","7350 W Waters Ave",2022-08-11 20:32:06,2022-08-12
-81.513911,27.592526,FALSE,"FL","Avon Park","339 Us Hwy 27 S",2022-08-11 20:32:06,2022-08-12
-82.270407,27.89328,FALSE,"FL","Brandon","985 E Bloomingdale Ave",2022-08-11 20:32:06,2022-08-12
-82.435167,27.96424,FALSE,"FL","Tampa","2101 E 13th Avenue",2022-08-11 20:32:06,2022-08-12
-82.517253,27.996659,FALSE,"FL","Tampa","4333 W Hillsborough Ave",2022-08-11 20:32:06,2022-08-12
-82.202679,27.860113,FALSE,"FL","Lithia","16701 Fishhawk Blvd",2022-08-11 20:32:06,2022-08-12
-80.205667,27.132043,FALSE,"FL","Stuart","5960 Se Federal Hwy",2022-08-11 20:32:06,2022-08-12
-82.484476,27.97475,FALSE,"FL","Tampa","4009 N Armenia",2022-08-11 20:32:06,2022-08-12
-82.348808,27.91241,FALSE,"FL","Riverview","3921 S Us Hwy 301",2022-08-11 20:32:06,2022-08-12
-86.653426,30.419329,FALSE,"FL","Mary Esther","440 Mary Esther",2022-08-11 20:32:06,2022-08-12
-82.738595,28.079991,FALSE,"FL","Palm Harbor","33817 Us Hwy 19 N",2022-08-11 20:32:06,2022-08-12
-82.319846,27.893216,FALSE,"FL","Riverview","11007 Bloomingdale Ave",2022-08-11 20:32:06,2022-08-12
-82.706143,28.062516,FALSE,"FL","Palm Harbor","3480 E Lake Rd",2022-08-11 20:32:06,2022-08-12
-82.652316,28.035551,FALSE,"FL","Oldsmar","4085 Tampa Rd",2022-08-08 01:00:06,2022-08-08
-82.569683,27.997025,FALSE,"FL","Tampa","7909 W Hillsboro Ave",2022-08-08 01:00:06,2022-08-08
-82.504883,27.958967,FALSE,"FL","Tampa","1905 N Dale Mabry Hwy",2022-08-11 20:32:06,2022-08-12
-82.458323,27.937994,FALSE,"FL","Tampa","2 Columbia Dr",2022-08-11 20:32:06,2022-08-12
-82.475405,27.944246,FALSE,"FL","Tampa","1520 W Kennedy Blvd",2022-08-11 20:32:06,2022-08-12
-80.258349,27.111397,FALSE,"FL","Stuart","7596 Sw Lost River Rd",2022-08-11 20:32:06,2022-08-12
-82.73917,28.044529,TRUE,"FL","Clearwater","29978 Us Hwy 19 North",2022-08-11 20:32:06,2022-08-12
-82.519888,27.945169,FALSE,"FL","Tampa","4443 W Kennedy",2022-08-11 20:32:06,2022-08-12
-80.137207,27.062174,FALSE,"FL","Hobe Sound","11671 Se Federal Hwy",2022-08-11 20:32:06,2022-08-12
-82.326122,27.855736,FALSE,"FL","Riverview","9870 Us Hwy 301",2022-08-11 20:32:06,2022-08-12
-82.780246,28.050495,FALSE,"FL","Dunedin","2618 Bayshore Blvd",2022-08-11 20:32:06,2022-08-12
-81.493093,27.5108,FALSE,"FL","Sebring","3000 Us Hwy 27 N",2022-08-11 20:32:06,2022-08-12
-82.708455,28.010527,FALSE,"FL","Clearwater","2454 Mcmullen Booth Road",2022-08-11 20:32:06,2022-08-12
-82.353655,27.847249,FALSE,"FL","Gibsonton","9205 Gibsonton Dr",2022-08-11 20:32:06,2022-08-12
-86.747533,30.411128,FALSE,"FL","Mary Esther","2199 W Hwy 98",2022-08-11 20:32:06,2022-08-12
-82.506659,27.910894,FALSE,"FL","Tampa","3515 S Dale Mabry",2022-08-11 20:32:06,2022-08-12
-82.758639,28.019029,FALSE,"FL","Dunedin","1645 Main Street",2022-08-11 20:32:06,2022-08-12
-81.442413,27.470484,FALSE,"FL","Sebring","3115 Us Hwy 27 S",2022-08-11 20:32:06,2022-08-12
-80.826145,27.244103,FALSE,"FL","Okeechobee","401 E North Park St",2022-08-11 20:32:06,2022-08-12
-82.518043,27.894541,FALSE,"FL","Tampa","4818 S Manhattan",2022-08-11 20:32:06,2022-08-12
-87.052205,30.615089,FALSE,"FL","Milton","6485 Caroline St",2022-08-11 20:32:06,2022-08-12
-82.755291,27.990831,FALSE,"FL","Clearwater","1934 N Hercules Ave",2022-08-11 20:32:06,2022-08-12
-82.506862,27.871825,FALSE,"FL","Tampa","6505 S Dale Mabry Dr",2022-08-11 20:32:06,2022-08-12
-82.334202,27.795193,FALSE,"FL","Riverview","13118 S Us Hwy 301",2022-08-11 20:32:06,2022-08-12
-82.718385,27.960214,FALSE,"FL","Clearwater","2871 Gulf To Bay Blvd",2022-08-11 20:32:06,2022-08-12
-86.830856,30.412168,FALSE,"FL","Navarre","9360 Navarre Pkwy",2022-08-11 20:32:06,2022-08-12
-80.830602,27.205925,FALSE,"FL","Okeechobee","4151 Us Hwy 441 S",2022-08-11 20:32:06,2022-08-12
-82.7604,27.960953,FALSE,"FL","Clearwater","1860 Gulf To Bay Blvd",2022-08-11 20:32:06,2022-08-12
-82.74639,27.941768,FALSE,"FL","Clearwater","1500 S Belcher Rd",2022-08-11 20:32:06,2022-08-12
-82.787078,27.959784,FALSE,"FL","Clearwater","539 S Missouri Avenue",2022-08-11 20:33:06,2022-08-12
-87.11493,30.60381,FALSE,"FL","Pace","5004 Highway 90",2022-08-11 20:32:06,2022-08-12
-86.861392,30.402074,FALSE,"FL","Navarre","8644 Navarre Pky",2022-08-11 20:32:06,2022-08-12
-82.829262,27.971964,FALSE,"FL","Clearwater Beach","347 S Gulfview Blvd",2022-08-11 20:33:06,2022-08-12
-81.808963,27.536831,FALSE,"FL","Wauchula","907 Us Hwy 17 S",2022-08-11 20:32:06,2022-08-12
-80.081092,26.935504,FALSE,"FL","Jupiter","181 N Us 1",2022-08-11 20:33:06,2022-08-12
-82.726445,27.91584,FALSE,"FL","Largo","2675 Roosevelt Blvd",2022-08-11 20:32:06,2022-08-12
-82.68101,27.893233,FALSE,"FL","Clearwater","3470 Ulmerton Road",2022-08-11 20:32:06,2022-08-12
-82.787267,27.931132,FALSE,"FL","Largo","1590 Missouri Ave",2022-08-11 20:32:06,2022-08-12
-82.763327,27.91709,FALSE,"FL","Largo","2300 E Bay Dr",2022-08-11 20:32:06,2022-08-12
-80.139167,26.933924,FALSE,"FL","Jupiter","6760 Indiantown Rd",2022-08-11 20:33:06,2022-08-12
-82.639339,27.859399,FALSE,"FL","St. Petersburg","9600 4th St N",2022-08-11 20:32:06,2022-08-12
-87.087861,30.537356,FALSE,"FL","Milton","2807 Avalon Blvd",2022-08-11 20:32:06,2022-08-12
-80.191923,26.941555,FALSE,"FL","Jupiter","10030 Indian Town Rd",2022-08-11 20:33:06,2022-08-12
-82.747222,27.894734,FALSE,"FL","Largo","7901 Ulmerton Rd",2022-08-11 20:32:06,2022-08-12
-82.800228,27.917263,FALSE,"FL","Largo","1250 W Bay Dr",2022-08-11 20:32:06,2022-08-12
-82.336761,27.712873,FALSE,"FL","Sun City","4896 Sun City Center Blvd",2022-08-11 20:32:06,2022-08-12
-80.46395,27.018198,FALSE,"FL","Indiantown","15438 Sw Warfield Blvd",2022-08-11 20:32:06,2022-08-12
-87.175938,30.591096,FALSE,"FL","Pace","3540 Hwy 90",2022-08-11 20:33:06,2022-08-12
-82.429501,27.735534,FALSE,"FL","Ruskin","5001 South Tamiami Trail",2022-08-11 20:32:06,2022-08-12
-82.647847,27.828919,FALSE,"FL","St. Petersburg","925 62nd Ave N",2022-08-11 20:32:06,2022-08-12
-82.684913,27.8452,FALSE,"FL","Pinellas Park","8001 Us Highway 19 N",2022-08-11 20:32:06,2022-08-12
-82.787622,27.890754,FALSE,"FL","Largo","12976 Seminole Blvd",2022-08-11 20:33:06,2022-08-12
-82.728297,27.863865,FALSE,"FL","Pinellas Park","10191 66th St N",2022-08-11 20:32:06,2022-08-12
-82.392938,27.713785,FALSE,"FL","Sun City Center","3110 Sr 674",2022-08-11 20:32:06,2022-08-12
-80.104818,26.883599,FALSE,"FL","Jupiter","5480 Military Trl",2022-08-11 20:32:06,2022-08-12
-82.680831,27.835943,FALSE,"FL","Pinellas Park","7001 Us Hwy 19 N",2022-08-11 20:32:06,2022-08-12
-81.357682,27.293605,FALSE,"FL","Lake Placid","321 Us Hwy 27 S",2022-08-11 20:33:06,2022-08-12
-82.703379,27.838784,FALSE,"FL","Pinellas Park","5170 Park Blvd N",2022-08-11 20:33:06,2022-08-12
-82.638061,27.806436,FALSE,"FL","Saint Petersburg","300 38th Ave N",2022-08-11 20:33:06,2022-08-12
-80.058922,26.852921,TRUE,"FL","North Palm Beach","12025 Us Hwy 1",2022-08-11 20:33:06,2022-08-12
-82.8307,27.880831,FALSE,"FL","Largo","13875 Walsingham Rd",2022-08-11 20:33:06,2022-08-12
-82.762827,27.839893,FALSE,"FL","Seminole","8901 Park Blvd",2022-08-11 20:33:06,2022-08-12
-82.699504,27.809842,TRUE,"FL","Saint Petersburg","4145 49th St N",2022-08-11 20:33:06,2022-08-12
-82.728968,27.821375,FALSE,"FL","St. Petersburg","5464 66th St N",2022-08-11 20:33:06,2022-08-12
-82.786615,27.836313,FALSE,"FL","Seminole","7003 Seminole Blvd",2022-08-11 20:33:06,2022-08-12
-82.679878,27.782344,FALSE,"FL","St. Petersburg","1020 34th St N",2022-08-11 20:33:06,2022-08-12
-80.084757,26.821607,FALSE,"FL","Palm Beach Gardens","9880 Florida A1a Alternate",2022-08-11 20:33:06,2022-08-12
-87.189204,30.496453,TRUE,"FL","Pensacola","6935 N 9th Ave",2022-08-11 20:33:06,2022-08-12
-82.638813,27.753916,FALSE,"FL","St. Petersburg","1661 4th St S",2022-08-11 20:33:06,2022-08-12
-87.294858,30.578737,FALSE,"FL","Gonzalez","1610 Highway 29s",2022-08-11 20:33:06,2022-08-12
-82.729676,27.793856,FALSE,"FL","St. Petersburg","2315 Tyrone Blvd",2022-08-11 20:33:06,2022-08-12
-87.222091,30.507725,FALSE,"FL","Pensacola","7915 N Davis Hwy",2022-08-11 20:33:06,2022-08-12
-80.094413,26.809221,FALSE,"FL","Palm Beach Gardens","3805 N Lake Blvd",2022-08-11 20:33:06,2022-08-12
-82.793241,27.808948,FALSE,"FL","Madeira Beach","650 150th Avenue",2022-08-11 20:33:06,2022-08-12
-80.054739,26.790993,FALSE,"FL","Riviera Beach","3551 N Broadway",2022-08-11 20:33:06,2022-08-12
-87.266955,30.532437,FALSE,"FL","Pensacola","123 E Nine Mile Rd",2022-08-11 20:33:06,2022-08-12
-87.085669,30.387606,FALSE,"FL","Gulf Breeze","3308 Gulf Breeze Parkway",2022-08-11 20:33:06,2022-08-12
-80.088261,26.795066,TRUE,"FL","Lake Park","130 N Congress",2022-08-11 20:33:06,2022-08-12
-87.212761,30.482355,FALSE,"FL","Pensacola","1500 Airport Blvd",2022-08-11 20:33:06,2022-08-12
-87.208137,30.471779,FALSE,"FL","Pensacola","4990 Bayou Rd",2022-08-11 20:33:06,2022-08-12
-82.702462,27.748596,FALSE,"FL","Gulfport","5111 Gulfport Blvd",2022-08-11 20:33:06,2022-08-12
-82.682301,27.736073,FALSE,"FL","St. Petersburg","3501 34th St S",2022-08-11 20:33:06,2022-08-12
-80.101992,26.783904,FALSE,"FL","West Palm Beach","4145 Blue Heron Blvd",2022-08-11 20:33:06,2022-08-12
-82.679877,27.726845,FALSE,"FL","St. Petersburg","4595 34 St S",2022-08-11 20:33:06,2022-08-12
-87.262181,30.495959,FALSE,"FL","Pensacola","7198 Pensacola Blvd",2022-08-11 20:33:06,2022-08-12
-87.313918,30.519005,FALSE,"FL","Pensacola","7941 Pine Forest Rd",2022-08-11 20:33:06,2022-08-12
-82.748744,27.738669,FALSE,"FL","St. Petersburg","6855 Gulf Blvd",2022-08-11 20:33:06,2022-08-12
-80.073623,26.753706,FALSE,"FL","West Palm Beach","1207 W 45th St",2022-08-11 20:33:06,2022-08-12
-80.10463,26.760095,FALSE,"FL","West Palm Beach","4275 45th St",2022-08-11 20:33:06,2022-08-12
-87.207329,30.422618,FALSE,"FL","Pensacola","815 E Cervantes",2022-08-11 20:33:06,2022-08-12
-87.241351,30.445776,FALSE,"FL","Pensacola","2120 W Fairfield",2022-08-11 20:33:06,2022-08-12
-87.17207,30.366951,FALSE,"FL","Gulf Breeze","201 Gulf Breeze Pky",2022-08-11 20:33:06,2022-08-12
-80.084266,26.723363,FALSE,"FL","West Palm Beach","1720 Palm Beach Lakes Blvd",2022-08-11 20:33:06,2022-08-12
-87.301715,30.461474,FALSE,"FL","Pensacola","6003 Mobile Hwy",2022-08-11 20:33:06,2022-08-12
-80.292719,26.779411,FALSE,"FL","Loxahatchee","15880 Orange Blvd",2022-08-11 20:33:06,2022-08-12
-80.089086,26.706936,FALSE,"FL","West Palm Beach","2421 Okeechobee Boulevard",2022-08-11 20:33:06,2022-08-12
-80.058109,26.690037,FALSE,"FL","West Palm Beach","650 Belvedere Rd",2022-08-11 20:33:06,2022-08-12
-80.111819,26.703748,FALSE,"FL","West Palm Beach","1775 Military Trl",2022-08-11 20:33:06,2022-08-12
-87.275594,30.405824,FALSE,"FL","Pensacola","1107 N Navy Blvd",2022-08-11 20:33:06,2022-08-12
-80.152843,26.707282,FALSE,"FL","West Palm Beach","6858 Okeechobee Blvd",2022-08-11 20:33:06,2022-08-12
-80.198202,26.710021,FALSE,"FL","West Palm Beach","9835 Okeechobee Blvd",2022-08-11 20:33:06,2022-08-12
-80.228443,26.709532,FALSE,"FL","Royal Palm Beach","1400 Royal Palm Beach Boulevard",2022-08-11 20:33:06,2022-08-12
-82.500878,27.530987,FALSE,"FL","Ellenton","6103 Us Hwy 301 North",2022-08-11 20:33:06,2022-08-12
-80.112026,26.665319,FALSE,"FL","West Palm Beach","828 S Military Trl",2022-08-11 20:33:06,2022-08-12
-80.199452,26.689078,FALSE,"FL","Royal Palm Beach","9990 Belvedere Rd",2022-08-11 20:33:06,2022-08-12
-80.056775,26.643753,FALSE,"FL","Lake Worth","2501 N Dixie Hwy",2022-08-11 20:33:06,2022-08-12
-87.343249,30.402812,FALSE,"FL","Pensacola","5 S Blue Angel Pkwy",2022-08-11 20:33:06,2022-08-12
-80.089645,26.651352,FALSE,"FL","Palm Springs","3015 Forest Hill Blvd",2022-08-11 20:33:06,2022-08-12
-82.431308,27.484764,FALSE,"FL","Bradenton","11150 Sr 64",2022-08-11 20:33:06,2022-08-12
-80.201726,26.678279,FALSE,"FL","West Palm Beach","100 State Rd 7",2022-08-11 20:33:06,2022-08-12
-82.482488,27.495848,FALSE,"FL","Bradenton","6225 Sr 64 E",2022-08-11 20:33:06,2022-08-12
-82.478332,27.493673,FALSE,"FL","Bradenton","604 67th Street Cir E",2022-08-11 20:33:06,2022-08-12
-80.145854,26.651647,FALSE,"FL","West Palm Beach","6581 Forest Hill Blvd",2022-08-11 20:33:06,2022-08-12
-82.557989,27.520835,FALSE,"FL","Palmetto","699 10th St E",2022-08-11 20:33:06,2022-08-12
-80.113219,26.638634,FALSE,"FL","West Palm Beach","2605 S Military Trail",2022-08-11 20:33:06,2022-08-12
-80.089547,26.622422,FALSE,"FL","Lake Worth","3671 S Congress",2022-08-11 20:33:06,2022-08-12
-81.84566,27.210885,FALSE,"FL","Arcadia","1203 Oak St",2022-08-11 20:33:06,2022-08-12
-80.208476,26.646333,FALSE,"FL","Wellington","10300 W Forest Hill Blvd",2022-08-11 20:33:06,2022-08-12
-80.267367,26.660874,FALSE,"FL","Wellington","1470 Greenview Shores Blvd",2022-08-11 20:33:06,2022-08-12
-80.204858,26.639313,FALSE,"FL","Wellington","2755 S Sr 7",2022-08-11 20:33:06,2022-08-12
-80.138819,26.618685,FALSE,"FL","Greenacres","6000 Lake Worth Rd",2022-08-11 20:33:06,2022-08-12
-82.46961,27.445189,FALSE,"FL","Bradenton","7185 State Rd 70 East",2022-08-11 20:33:06,2022-08-12
-80.167175,26.618017,FALSE,"FL","Lake Worth","7793 Lake Worth Rd",2022-08-11 20:33:06,2022-08-12
-80.06738,26.58593,FALSE,"FL","Lantana","1450 W Lantana Rd",2022-08-11 20:33:06,2022-08-12
-82.628908,27.496392,FALSE,"FL","Bradenton","6708 Manatee Ave W",2022-08-11 20:33:06,2022-08-12
-82.521215,27.447679,FALSE,"FL","Bradenton","5299 33rd St E",2022-08-11 20:33:06,2022-08-12
-82.527316,27.449716,FALSE,"FL","Bradenton","2911 53rd Ave E",2022-08-11 20:34:06,2022-08-12
-80.145193,26.589189,FALSE,"FL","Lake Worth","6342 Lantana Rd",2022-08-11 20:33:06,2022-08-12
-82.574918,27.457322,FALSE,"FL","Bradenton","4711 14th St W",2022-08-11 20:34:06,2022-08-12
-80.114499,26.571189,FALSE,"FL","West Palm Beach","4614 Hypoluxo Road",2022-08-11 20:33:06,2022-08-12
-82.598545,27.462064,FALSE,"FL","Bradenton","3631 Cortez Rd W",2022-08-11 20:33:06,2022-08-12
-82.615312,27.460235,FALSE,"FL","Bradenton","5315 Cortez Rd W",2022-08-11 20:33:06,2022-08-12
-82.634509,27.463072,FALSE,"FL","Bradenton","7300 Cortez Road West",2022-08-11 20:33:06,2022-08-12
-80.091105,26.544195,FALSE,"FL","Boynton Beach","1799 N Congress Blvd",2022-08-11 20:33:06,2022-08-12
-87.421245,30.320856,FALSE,"FL","Pensacola","13145 Sorrento Rd",2022-08-11 20:34:06,2022-08-12
-82.506135,27.389668,FALSE,"FL","Sarasota","8494 Lockwood Ridge Road",2022-08-11 20:34:06,2022-08-12
-80.05871,26.512358,FALSE,"FL","Boynton Beach","1810 S Federal Hwy",2022-08-11 20:33:06,2022-08-12
-80.122337,26.529131,FALSE,"FL","Boynton Beach","9858 Military Trl",2022-08-11 20:33:06,2022-08-12
-80.089558,26.512882,FALSE,"FL","Boynton Beach","1610 S Congress Ave",2022-08-11 20:34:06,2022-08-12
-80.147972,26.529543,FALSE,"FL","Boynton Beach","9915 Jog Rd",2022-08-11 20:33:06,2022-08-12
-82.563045,27.39494,FALSE,"FL","Sarasota","8164 N Tamiami Trl",2022-08-11 20:34:06,2022-08-12
-82.53154,27.371737,FALSE,"FL","Sarasota","4301 N Washington Blvd",2022-08-11 20:33:06,2022-08-12
-80.66998,26.675723,FALSE,"FL","Belle Glade","833 S Main St",2022-08-11 20:34:06,2022-08-12
-82.458407,27.33732,FALSE,"FL","Sarasota","5554 Fruitville Rd",2022-08-11 20:34:06,2022-08-12
-80.945049,26.75483,FALSE,"FL","Clewiston","905 W Sugarland Hwy",2022-08-11 20:33:06,2022-08-12
-82.49893,27.337941,TRUE,"FL","Sarasota","3511 Fruitville Rd",2022-08-11 20:34:06,2022-08-12
-82.450934,27.298297,FALSE,"FL","Sarasota","3901 Cattlemen Rd",2022-08-11 20:33:06,2022-08-12
-82.530107,27.328815,FALSE,"FL","Sarasota","787 Washington Blvd",2022-08-11 20:33:06,2022-08-12
-80.069134,26.443914,FALSE,"FL","Delray Beach","1400 S Us Hwy 1",2022-08-11 20:33:06,2022-08-12
-80.123182,26.459394,FALSE,"FL","Delray Beach","14529 Military Trl",2022-08-11 20:34:06,2022-08-12
-82.49304,27.298311,FALSE,"FL","Sarasota","3828 Bee Ridge Rd",2022-08-11 20:33:06,2022-08-12
-80.085477,26.439176,FALSE,"FL","Delray Beach","1220 Linton Blvd",2022-08-11 20:34:06,2022-08-12
-82.530085,27.299198,FALSE,"FL","Sarasota","3875 S Tamiami Trail",2022-08-11 20:33:06,2022-08-12
-82.483459,27.268746,FALSE,"FL","Sarasota","5821 Derek Ave",2022-08-11 20:34:06,2022-08-12
-82.52352,27.261972,FALSE,"FL","Sarasota","6347 S Tamiami Trl",2022-08-11 20:34:06,2022-08-12
-80.145762,26.40853,FALSE,"FL","Boca Raton","2911 Clintmoore Rd",2022-08-11 20:34:06,2022-08-12
-80.103128,26.393288,FALSE,"FL","Boca Raton","710 Yamato Road",2022-08-11 20:33:06,2022-08-12
-80.077051,26.368989,FALSE,"FL","Boca Raton","2140 N Federal Hwy",2022-08-11 20:34:06,2022-08-12
-80.122182,26.364495,FALSE,"FL","Boca Raton","1776 N Military Trail",2022-08-11 20:34:06,2022-08-12
-82.054962,27.016944,FALSE,"FL","Port Charlotte","24133 Peachland Blvd",2022-08-11 20:34:06,2022-08-12
-82.208007,27.070776,FALSE,"FL","Northport","1013 Front Place",2022-08-11 20:33:06,2022-08-12
-80.202644,26.370154,FALSE,"FL","Boca Raton","20594 State Rd 7",2022-08-11 20:34:06,2022-08-12
-80.155579,26.349593,FALSE,"FL","Boca Raton","7030 Palmetto Park Rd",2022-08-11 20:33:06,2022-08-12
-81.438738,26.761277,FALSE,"FL","La Belle","21 West Hickpochee Avenue",2022-08-11 20:34:06,2022-08-12
-82.418747,27.136891,FALSE,"FL","Venice","2480 Laurel Rd E",2022-08-11 20:34:06,2022-08-12
-80.108209,26.318057,FALSE,"FL","Deerfield Beach","300 W Hillsboro Blvd",2022-08-11 20:33:06,2022-08-12
-82.132884,27.005897,FALSE,"FL","Port Charlotte","1805 Tamiami Trl",2022-08-11 20:33:06,2022-08-12
-82.220749,27.039106,FALSE,"FL","North Port","14805 Tamiami Trl",2022-08-11 20:34:06,2022-08-12
-82.385298,27.105602,FALSE,"FL","Venice","325 Commercial Ct",2022-08-11 20:34:06,2022-08-12
-80.202161,26.332738,TRUE,"FL","Boca Raton","23073 Sandalfoot Plaza Dr",2022-08-11 20:33:06,2022-08-12
-82.100082,26.983596,FALSE,"FL","Port Charlotte","3232 Tamiami Trl",2022-08-11 20:33:06,2022-08-12
-80.156924,26.318256,FALSE,"FL","Deerfield Beach","3901 W Hillsboro Blvd",2022-08-11 20:34:06,2022-08-12
-80.094718,26.290898,FALSE,"FL","Lighthouse Point","4830 N Federal Hwy",2022-08-11 20:33:06,2022-08-12
-80.132654,26.301598,FALSE,"FL","Deerfield Beach","1205 S Military Tr",2022-08-11 20:33:06,2022-08-12
-82.069137,26.95969,FALSE,"FL","Port Charlotte","4695 Tamiami Trl",2022-08-11 20:34:06,2022-08-12
-82.438499,27.107651,FALSE,"FL","Venice","480 N Venice By-Pass",2022-08-11 20:34:06,2022-08-12
-80.20149,26.309157,FALSE,"FL","Coconut Creek","6440 N State Rd 7",2022-08-11 20:34:06,2022-08-12
-80.098918,26.268923,FALSE,"FL","Pompano Beach","3091 North Federal Highway",2022-08-11 20:34:06,2022-08-12
-80.132356,26.274442,FALSE,"FL","Pompano Beach","630 W Sample Rd",2022-08-11 20:33:06,2022-08-12
-82.423277,27.070933,FALSE,"FL","Venice","1720 S Tamiami Trail",2022-08-11 20:34:06,2022-08-12
-80.201248,26.284873,FALSE,"FL","Coconut Creek","4480 N Sr 7",2022-08-11 20:33:06,2022-08-12
-82.39181,27.05038,FALSE,"FL","Venice","4269 S Tamiami Tr",2022-08-11 20:34:06,2022-08-12
-82.006595,26.896231,FALSE,"FL","Punta Gorda","9083 Mac Drive",2022-08-11 20:34:06,2022-08-12
-80.127606,26.260086,TRUE,"FL","Pompano Beach","320 Nw 24th Street",2022-08-11 20:33:06,2022-08-12
-80.182739,26.273285,FALSE,"FL","Coconut Creek","4200 W Sample Rd",2022-08-11 20:34:06,2022-08-12
-80.278294,26.29957,FALSE,"FL","Coral Springs","5741 Coral Ridge Dr",2022-08-11 20:34:06,2022-08-12
-80.247597,26.286438,FALSE,"FL","Coral Springs","9180 Wiles Rd",2022-08-11 20:34:06,2022-08-12
-80.229268,26.272624,FALSE,"FL","Coral Springs","7751 W Sample Rd",2022-08-11 20:34:06,2022-08-12
-80.103647,26.232016,FALSE,"FL","Pompano Beach","2025 East Atlantic Blvd",2022-08-11 20:34:06,2022-08-12
-80.164269,26.244735,FALSE,"FL","Pompano Beach","1490 Nw 31 Ave",2022-08-11 20:33:06,2022-08-12
-80.28194,26.27343,FALSE,"FL","Coral Springs","11655 W Sample Rd",2022-08-11 20:34:06,2022-08-12
-80.157156,26.230478,FALSE,"FL","Pompano Beach","1 Sw 26th Avenue",2022-08-11 20:33:06,2022-08-12
-82.225958,26.933907,FALSE,"FL","Port Charlotte","13418 S Mccall Rd",2022-08-11 20:34:06,2022-08-12
-80.199271,26.235801,FALSE,"FL","Margate","5367 W Atlantic Blvd",2022-08-11 20:33:06,2022-08-12
-80.107533,26.206575,FALSE,"FL","Fort Lauderdale","6360 North Federal Hwy",2022-08-11 20:35:06,2022-08-12
-80.25548,26.238756,FALSE,"FL","Coral Springs","630 University Dr",2022-08-11 20:34:06,2022-08-12
-80.225576,26.227825,FALSE,"FL","North Lauderdale","7520 Southgate Blvd",2022-08-11 20:34:06,2022-08-12
-80.156757,26.203597,FALSE,"FL","Fort Lauderdale","929 Nw 62nd St",2022-08-11 20:35:06,2022-08-12
-80.128907,26.188694,FALSE,"FL","Fort Lauderdale","1352 E Commercial",2022-08-11 20:34:06,2022-08-12
-81.719872,26.709507,FALSE,"FL","Fort Myers","14551 Palm Beach Blvd",2022-08-11 20:35:06,2022-08-12
-80.27021,26.227867,FALSE,"FL","Tamarac","8375 Pine Island Rd",2022-08-11 20:33:06,2022-08-12
-80.098677,26.177289,FALSE,"FL","Fort Lauderdale","4032 N Ocean Blvd",2022-08-11 20:34:06,2022-08-12
-80.221505,26.207843,FALSE,"FL","North Lauderdale","7200 W Mcnab Road",2022-08-11 20:33:06,2022-08-12
-80.156033,26.188047,TRUE,"FL","Fort Lauderdale","950 W Commercial Blvd",2022-08-11 20:34:06,2022-08-12
-82.349289,26.939976,FALSE,"FL","Englewood","1250 S Mccall Rd",2022-08-11 20:33:06,2022-08-12
-80.115819,26.16126,FALSE,"FL","Fort Lauderdale","2700 N Federal Hwy",2022-08-11 20:33:06,2022-08-12
-80.148806,26.166799,FALSE,"FL","Oakland Park","265 W Oakland Park Blvd",2022-08-11 20:33:06,2022-08-12
-80.203091,26.179883,FALSE,"FL","Lauderdale Lakes","4398 North State Road 7",2022-08-11 20:34:06,2022-08-12
-80.25267,26.194323,FALSE,"FL","Tamarac","7600 Nw 57th Street",2022-08-11 20:34:06,2022-08-12
-80.273378,26.193209,FALSE,"FL","Sunrise","9220 W Commercial Blvd",2022-08-11 20:34:06,2022-08-12
-80.185445,26.165777,TRUE,"FL","Oakland Park","3073 West Oakland Park Boulevard",2022-08-11 20:35:06,2022-08-12
-80.224519,26.164376,FALSE,"FL","Lauderhill","5510 W Oakland Park Blvd",2022-08-11 20:35:06,2022-08-12
-80.268358,26.177102,FALSE,"FL","Sunrise","4301 Pine Island Road",2022-08-11 20:34:06,2022-08-12
-80.140981,26.136633,FALSE,"FL","Fort Lauderdale","300 E Sunrise Blvd",2022-08-11 20:34:06,2022-08-12
-81.8508,26.69989,FALSE,"FL","North Fort Myers","6431 Bayshore Rd N",2022-08-11 20:34:06,2022-08-12
-80.173807,26.136185,FALSE,"FL","Ft Lauderdale","2300 W Sunrise Blvd",2022-08-11 20:35:06,2022-08-12
-80.295706,26.169387,FALSE,"FL","Sunrise","10901 W Oakland Park Blvd",2022-08-11 20:35:06,2022-08-12
-80.202142,26.139536,FALSE,"FL","Lauderhill","1140 40th Ave",2022-08-11 20:34:06,2022-08-12
-80.144285,26.122705,FALSE,"FL","Fort Lauderdale","27 W Broward Blvd",2022-08-11 20:34:06,2022-08-12
-80.256624,26.152414,FALSE,"FL","Sunrise","2260 N University Dr",2022-08-11 20:34:06,2022-08-12
-81.667101,26.614779,FALSE,"FL","Lehigh Acres","2523 Lee Blvd",2022-08-11 20:34:06,2022-08-12
-81.650474,26.60687,FALSE,"FL","Lehigh Acres","1245 Homestead Rd N",2022-08-11 20:35:06,2022-08-12
-80.283625,26.153254,FALSE,"FL","Sunrise","10013 Sunset Strip",2022-08-11 20:34:06,2022-08-12
-81.826873,26.667869,FALSE,"FL","Fort Myers","4280 Palm Beach Blvd",2022-08-11 20:34:06,2022-08-12
-80.177442,26.121044,FALSE,"FL","Ft Lauderdale","2410 W. Broward Blvd.",2022-08-11 20:35:06,2022-08-12
-80.136357,26.101007,FALSE,"FL","Fort Lauderdale","1630 S Federal",2022-08-11 20:34:06,2022-08-12
-80.140834,26.101859,FALSE,"FL","Fort Lauderdale","1600 S Andrews Ave",2022-08-11 20:35:06,2022-08-12
-81.941232,26.70002,FALSE,"FL","Cape Coral","2541 Del Prado N",2022-08-11 20:34:06,2022-08-12
-81.905556,26.68261,FALSE,"FL","Cape Coral","3061 Ne Pine Island Rd",2022-08-11 20:35:06,2022-08-12
-81.898529,26.679535,FALSE,"FL","North Fort Myers","545 Pine Island Rd",2022-08-11 20:34:06,2022-08-12
-80.178156,26.106043,FALSE,"FL","Ft. Lauderdale","2700 Davie Blvd",2022-08-11 20:34:06,2022-08-12
-80.331458,26.146375,FALSE,"FL","Sunrise","13655 W Sunrise Blvd",2022-08-11 20:34:06,2022-08-12
-80.157219,26.092066,FALSE,"FL","Fort Lauderdale","1201 State Hwy 84",2022-08-11 20:34:06,2022-08-12
-81.888238,26.664521,FALSE,"FL","Fort Myers","13741 N Cleveland Ave",2022-08-11 20:35:06,2022-08-12
-81.769534,26.618207,FALSE,"FL","Ft. Myers","11041 Colonial Blvd",2022-08-11 20:34:06,2022-08-12
-80.200787,26.100238,FALSE,"FL","Fort Lauderdale","1600 S State Hwy Seven",2022-08-11 20:34:06,2022-08-12
-80.250569,26.103006,FALSE,"FL","Plantation","1351 S University Dr",2022-08-11 20:34:06,2022-08-12
-80.298513,26.109927,FALSE,"FL","Davie","11200 Sr 84",2022-08-11 20:34:06,2022-08-12
-80.331098,26.117301,FALSE,"FL","Davie","13642 Sr 84",2022-08-11 20:35:06,2022-08-12
-81.810504,26.610173,FALSE,"FL","Fort Myers","8177 Dani Drive",2022-08-11 20:34:06,2022-08-12
-81.814031,26.610816,FALSE,"FL","Fort Myers","4770 Colonial Blvd",2022-08-11 20:34:06,2022-08-12
-80.229447,26.086358,FALSE,"FL","Davie","6405 Nova Dr",2022-08-11 20:35:06,2022-08-12
-80.393714,26.118287,FALSE,"FL","Weston","326 Indian Trace",2022-08-11 20:35:06,2022-08-12
-81.972938,26.652003,FALSE,"FL","Cape Coral","8 Ne Pine Island Rd",2022-08-11 20:34:06,2022-08-12
-80.362638,26.106874,FALSE,"FL","Fort Lauderdale","1020 Weston Rd",2022-08-11 20:34:06,2022-08-12
-80.159686,26.047751,FALSE,"FL","Hollywood","2690 Stirling Rd",2022-08-11 20:35:06,2022-08-12
-81.871417,26.609511,FALSE,"FL","Fort Myers","3645 Cleveland Ave",2022-08-11 20:34:06,2022-08-12
-80.143686,26.035724,FALSE,"FL","Dania","1310 S Federal Hwy",2022-08-11 20:34:06,2022-08-12
-81.852427,26.598123,FALSE,"FL","Fort Myers","2955 Colonial Blvd",2022-08-11 20:34:06,2022-08-12
-80.206821,26.052417,FALSE,"FL","Hollywood","5530 S Sr 7",2022-08-11 20:35:06,2022-08-12
-80.165193,26.033807,FALSE,"FL","Hollywood","2851 Sheridan St",2022-08-11 20:34:06,2022-08-12
-81.937068,26.62074,FALSE,"FL","Cape Coral","1619 S Del Prado",2022-08-11 20:34:06,2022-08-12
-81.940442,26.619438,FALSE,"FL","Cape Coral","1715 Del Prado Blvd",2022-08-11 20:34:06,2022-08-12
-80.283698,26.063591,FALSE,"FL","Cooper City","10260 Griffin Rd",2022-08-11 20:35:06,2022-08-12
-81.884479,26.596301,FALSE,"FL","Fort Myers","1530 Colonial Blvd",2022-08-11 20:34:06,2022-08-12
-80.231845,26.045567,FALSE,"FL","Hollywood","4295 N Davie Road Ext",2022-08-11 20:34:06,2022-08-12
-81.433256,26.4254,FALSE,"FL","Immokalee","420 N 15th St",2022-08-08 01:00:06,2022-08-08
-80.208854,26.027423,FALSE,"FL","Hollywood","1900 N State Road 7",2022-08-11 20:34:06,2022-08-12
-82.036307,26.638105,FALSE,"FL","Cape Coral","2925 Sw Pine Island Rd",2022-08-11 20:34:06,2022-08-12
-81.800684,26.546508,FALSE,"FL","Fort Myers","13600 Indian Paint Ln",2022-08-11 20:34:06,2022-08-12
-80.172951,26.011253,FALSE,"FL","Hollywood","3247 Hollywood Blvd",2022-08-11 20:34:06,2022-08-12
-80.359969,26.064214,FALSE,"FL","Davie","4492 Weston Rd",2022-08-11 20:34:06,2022-08-12
-81.974799,26.60732,FALSE,"FL","Cape Coral","2404 Santa Barbara Blvd",2022-08-11 20:34:06,2022-08-12
-80.312393,26.045591,FALSE,"FL","Cooper City","5986 Flamingo Rd",2022-08-11 20:34:06,2022-08-12
-81.872698,26.563788,FALSE,"FL","Fort Myers","12290 S Clevelnd Ave",2022-08-11 20:34:06,2022-08-12
-80.204989,26.010492,FALSE,"FL","Hollywood","5835 Hollywood Blvd",2022-08-11 20:34:06,2022-08-12
-80.249064,26.021688,FALSE,"FL","Pembroke Pines","1490 University Drive",2022-08-11 20:34:06,2022-08-12
-80.142841,25.987095,FALSE,"FL","Hallandale","111 North Federal Highway",2022-08-11 20:36:06,2022-08-12
-80.160216,25.984582,FALSE,"FL","Hallandale","835 W Hallandale Beach Blvd",2022-08-11 20:34:06,2022-08-12
-80.298043,26.022201,FALSE,"FL","Pembroke Pines","11100 Taft Street",2022-08-11 20:34:06,2022-08-12
-81.903654,26.556032,FALSE,"FL","Fort Myers","8961 College Pky",2022-08-11 20:36:06,2022-08-12
-80.359581,26.030125,FALSE,"FL","Fort Lauderdale","15911 Sheridan St",2022-08-11 20:34:06,2022-08-12
-81.949204,26.562311,FALSE,"FL","Cape Coral","1222 Cape Coral Pky",2022-08-11 20:36:06,2022-08-12
-80.21113,25.984119,FALSE,"FL","Miramar","6204 Miramar Pkwy",2022-08-11 20:34:06,2022-08-12
-81.870596,26.525556,FALSE,"FL","Ft. Myers","14985 S Tamiami Tr",2022-08-11 20:34:06,2022-08-12
-80.314387,26.007037,FALSE,"FL","Pembroke Pines","12480 S Pines Blvd",2022-08-11 20:34:06,2022-08-12
-81.784863,26.485232,FALSE,"FL","Fort Myers","17800 Ben Hill Griffin Pky",2022-08-11 20:36:06,2022-08-12
-80.247605,25.979326,FALSE,"FL","Miramar","3306 S University Dr",2022-08-11 20:34:06,2022-08-12
-80.278405,25.987747,FALSE,"FL","Miramar","2351 Palm Ave",2022-08-11 20:34:06,2022-08-12
-80.121811,25.940145,FALSE,"FL","Sunny Isles Beach","17730 Collins Avenue",2022-08-11 20:34:06,2022-08-12
-82.007088,26.562235,FALSE,"FL","Cape Coral","1604 W Cape Coral Pky",2022-08-11 20:36:06,2022-08-12
-80.205359,25.958969,FALSE,"FL","Miami","20101 Nw 2nd Ave",2022-08-11 20:34:06,2022-08-12
-80.163891,25.945026,FALSE,"FL","Miami","18350 Ne 18th Rd",2022-08-11 20:34:06,2022-08-12
-80.394906,26.008319,FALSE,"FL","Pembroke Pines","18489 Pines Blvd",2022-08-11 20:34:06,2022-08-12
-80.389516,26.005706,TRUE,"FL","Pembroke Pines","151 Sw 184th Ave",2022-08-11 20:35:06,2022-08-12
-81.837313,26.477951,FALSE,"FL","Fort Myers","7105 Constitution Blvd",2022-08-11 20:34:06,2022-08-12
-80.243701,25.952903,FALSE,"FL","Miami Gardens","19501 Nw 27th Ave",2022-08-11 20:35:06,2022-08-12
-80.336621,25.979212,FALSE,"FL","Miramar","14301 Miramar Pkwy",2022-08-11 20:36:06,2022-08-12
-80.155511,25.926693,FALSE,"FL","North Miami","2201 Ne 163rd St",2022-08-11 20:34:06,2022-08-12
-80.171337,25.928253,FALSE,"FL","North Miami Beach","1425 Ne 163rd Street",2022-08-11 20:34:06,2022-08-12
-80.207722,25.935788,FALSE,"FL","Miami Gardens","17650 Nw 2nd Ave",2022-08-11 20:35:06,2022-08-12
-80.195929,25.927854,FALSE,"FL","North Miami Beach","200 Ne 167th St",2022-08-11 20:34:06,2022-08-12
-80.374193,25.97919,FALSE,"FL","Miramar","17001 Miramar Parkway",2022-08-11 20:35:06,2022-08-12
-80.245681,25.940175,FALSE,"FL","Carol City","18250 Nw 27th Ave",2022-08-11 20:34:06,2022-08-12
-81.770409,26.437543,TRUE,"FL","Estero","20310 Grand Oaks Shoppes Blvd",2022-08-11 20:34:06,2022-08-12
-81.943861,26.494559,FALSE,"FL","Fort Myers","18500 Summerlin Rd",2022-08-11 20:34:06,2022-08-12
-80.27658,25.939415,FALSE,"FL","Carol City","4686 Nw 183rd St",2022-08-11 20:35:06,2022-08-12
-80.212162,25.912657,FALSE,"FL","Miami","15096 Nw 7th",2022-08-11 20:36:06,2022-08-12
-80.295902,25.935846,FALSE,"FL","Miami","5851 Nw 177th St",2022-08-11 20:35:06,2022-08-12
-80.294228,25.935346,FALSE,"FL","Hialeah","17850 Nw 57th Avenue",2022-08-11 20:36:06,2022-08-12
-80.162258,25.895759,FALSE,"FL","North Miami","13000 Biscayne Blvd",2022-08-11 20:35:06,2022-08-12
-80.340583,25.942678,FALSE,"FL","Hialeah","8505 Nw 186th St",2022-08-11 20:34:06,2022-08-12
-80.308507,25.925483,FALSE,"FL","Hialeah","16701 Nw 67th Ave",2022-08-11 20:35:06,2022-08-12
-80.186093,25.889932,FALSE,"FL","Miami","610 Ne 125th St",2022-08-11 20:36:06,2022-08-12
-80.231708,25.897805,FALSE,"FL","Miami","1930 Opa Locka Blvd",2022-08-11 20:35:06,2022-08-12
-80.209982,25.883409,FALSE,"FL","North Miami","11899 Nw 7th Avenue",2022-08-11 20:36:06,2022-08-12
-80.319604,25.910885,FALSE,"FL","Miami Lakes","7435 Miami Lakes Dr W",2022-08-11 20:36:06,2022-08-12
-80.291105,25.887343,FALSE,"FL","Hialeah","7155 W 4th Ave",2022-08-11 20:34:06,2022-08-12
-80.242256,25.872286,FALSE,"FL","Miami","10775 Nw 27th Ave",2022-08-11 20:35:06,2022-08-12
-80.210077,25.859774,FALSE,"FL","Miami","9250 Nw 7th Ave",2022-08-11 20:35:06,2022-08-12
-80.185108,25.849872,FALSE,"FL","Miami","8116 Biscayne Blvd",2022-08-11 20:35:06,2022-08-12
-80.350484,25.896887,FALSE,"FL","Hialeah","3355 W 80th St",2022-08-11 20:34:06,2022-08-12
-80.316938,25.883691,FALSE,"FL","Hialeah","1660 W 68th St",2022-08-11 20:35:06,2022-08-12
-80.27502,25.861802,FALSE,"FL","Hialeah","4300 E 4th Ave",2022-08-11 20:35:06,2022-08-12
-80.330895,25.876749,FALSE,"FL","Hialeah","5995 W 24th Ave",2022-08-11 20:36:06,2022-08-12
-80.3052,25.866973,FALSE,"FL","Hialeah","1101 W 49th St",2022-08-11 20:35:06,2022-08-12
-80.242229,25.8476,FALSE,"FL","Miami","8050 Nw 27th Ave",2022-08-11 20:35:06,2022-08-12
-80.31678,25.868685,FALSE,"FL","Hialeah","1675 W 49th St",2022-08-11 20:36:06,2022-08-12
-80.206753,25.83273,FALSE,"FL","Miami","599 Nw 62nd St",2022-08-11 20:35:06,2022-08-12
-81.752986,26.332049,FALSE,"FL","Bonita Springs","27996 Oakland Dr",2022-08-11 20:35:06,2022-08-12
-80.314373,25.859504,FALSE,"FL","Hialeah","4185 W 16th Ave",2022-08-11 20:36:06,2022-08-12
-80.288598,25.847729,FALSE,"FL","Hialeah","330 W 29th St",2022-08-11 20:34:06,2022-08-12
-80.319695,25.852897,FALSE,"FL","Hialeah","3350 W 18th Ave",2022-08-11 20:35:06,2022-08-12
-80.261126,25.831946,FALSE,"FL","Hialeah","1021 E 10th Ave",2022-08-11 20:35:06,2022-08-12
-80.189163,25.809965,FALSE,"FL","Miami","3501 Biscayne Blvd",2022-08-11 20:35:06,2022-08-12
-80.132081,25.790433,FALSE,"FL","Miami Beach","1650 Washington Ave",2022-08-11 20:34:06,2022-08-12
-81.804982,26.327504,FALSE,"FL","Bonita Springs","28215 Tamiami Trl",2022-08-11 20:36:06,2022-08-12
-80.140924,25.789141,FALSE,"FL","Miami Beach","1601 Alton Rd",2022-08-11 20:34:06,2022-08-12
-80.271915,25.822662,FALSE,"FL","Hialeah","460 Hialeah Drive",2022-08-11 20:36:06,2022-08-12
-80.232268,25.809094,FALSE,"FL","Miami","2200 Nw 36th St",2022-08-11 20:35:06,2022-08-12
-81.691117,26.272589,FALSE,"FL","Naples","15291 Collier Blvd",2022-08-11 20:35:06,2022-08-12
-80.36989,25.841864,FALSE,"FL","Miami","7570 Nw 104 Ave",2022-08-11 20:35:06,2022-08-12
-80.326091,25.825438,FALSE,"FL","Miami","5700 Nw 79th Ave",2022-08-11 20:35:06,2022-08-12
-80.210788,25.79198,FALSE,"FL","Miami","901 Nw 17th St",2022-08-11 20:35:06,2022-08-12
-80.27729,25.808362,FALSE,"FL","Miami Springs","4999 Nw 36th St",2022-08-11 20:35:06,2022-08-12
-80.190172,25.778003,FALSE,"FL","Miami","345 Ne 2nd Ave",2022-08-11 20:35:06,2022-08-12
-80.31739,25.809995,FALSE,"FL","Miami","7405 Nw 36th St",2022-08-11 20:34:06,2022-08-12
-81.746458,26.273677,FALSE,"FL","Naples","5616 Tavilla Circle",2022-08-11 20:35:06,2022-08-12
-81.745647,26.270357,FALSE,"FL","Naples","5420 Juliet Blvd",2022-08-11 20:34:06,2022-08-12
-80.27542,25.792718,FALSE,"FL","Miami","1 Miad Terminal J",2022-08-11 20:35:06,2022-08-12
-80.211831,25.773374,FALSE,"FL","Miami","1020 W Flagler St",2022-08-11 20:36:06,2022-08-12
-80.351324,25.812111,FALSE,"FL","Miami","9501 Nw 41st St",2022-08-11 20:34:06,2022-08-12
-80.198866,25.766632,FALSE,"FL","Miami","299 Sw 8th Street",2022-08-11 20:36:06,2022-08-12
-80.256514,25.779265,FALSE,"FL","Miami","3747 Nw 7th St",2022-08-11 20:35:06,2022-08-12
-80.218683,25.765501,FALSE,"FL","Miami","1400 Sw 8th St",2022-08-11 20:34:06,2022-08-12
-80.381169,25.811162,FALSE,"FL","Miami","11390 Nw 41st Street",2022-08-11 20:35:06,2022-08-12
-80.336426,25.796169,FALSE,"FL","Miami","2405 Nw 87th Avenue",2022-08-11 20:35:06,2022-08-12
-81.802252,26.273293,FALSE,"FL","Naples","11141 N Tamiami Trail",2022-08-11 20:34:06,2022-08-12
-80.241236,25.764843,FALSE,"FL","Miami","2940 Sw 8th St",2022-08-11 20:35:06,2022-08-12
-80.286927,25.777626,FALSE,"FL","Miami","5650 Nw 7th Street",2022-08-11 20:35:06,2022-08-12
-80.335287,25.787029,TRUE,"FL","Miami","8651 Nw 13th Terrace",2022-08-11 20:34:06,2022-08-12
-80.332566,25.783395,FALSE,"FL","Miami","8403 Nw 12th St",2022-08-11 20:35:06,2022-08-12
-80.26286,25.763235,FALSE,"FL","Miami","4180 Sw 9th St",2022-08-11 20:35:06,2022-08-12
-80.248185,25.749746,FALSE,"FL","Miami","3280 Coral Way",2022-08-11 20:36:06,2022-08-12
-80.326046,25.770176,FALSE,"FL","Miami","7993 West Flagler Street",2022-08-11 20:35:06,2022-08-12
-80.313,25.763141,FALSE,"FL","Miami","7281 Sw 8th Street",2022-08-11 20:35:06,2022-08-12
-80.246245,25.736552,FALSE,"FL","Miami","3200 S Dixie Hwy",2022-08-11 20:35:06,2022-08-12
-81.730039,26.212114,FALSE,"FL","Naples","6065 Pine Ridge Rd",2022-08-11 20:35:06,2022-08-12
-80.366668,25.768213,FALSE,"FL","Sweetwater","10530 W Flagler St",2022-08-11 20:34:06,2022-08-12
-80.354963,25.761217,FALSE,"FL","Miami","9850 Sw 8th St",2022-08-11 20:36:06,2022-08-12
-81.687666,26.190825,FALSE,"FL","Golden Gate","12055 Collier Blvd",2022-08-11 20:34:06,2022-08-12
-80.336076,25.748622,FALSE,"FL","Miami","2300 Sw 87 Ave",2022-08-11 20:35:06,2022-08-12
-81.769094,26.213836,FALSE,"FL","Naples","5465 N Airport Rd",2022-08-11 20:36:06,2022-08-12
-80.390492,25.76053,FALSE,"FL","Miami","11990 Sw 8th Street",2022-08-11 20:34:06,2022-08-12
-80.303266,25.733056,FALSE,"FL","Miami","6700 Bird Rd",2022-08-11 20:35:06,2022-08-12
-80.323661,25.733566,FALSE,"FL","Miami","7901 Sw 40th St",2022-08-11 20:35:06,2022-08-12
-80.274593,25.715959,FALSE,"FL","Coral Gables","1148 Dixie Hwy",2022-08-11 20:34:06,2022-08-12
-80.43208,25.760479,FALSE,"FL","Miami","14670 Sw 8th St",2022-08-11 20:35:06,2022-08-12
-80.39174,25.744692,FALSE,"FL","Miami","12185 Sw 26th St",2022-08-11 20:34:06,2022-08-12
-81.800778,26.197894,FALSE,"FL","Naples","4245 N Tamiami Trl",2022-08-11 20:35:06,2022-08-12
-80.378134,25.732613,FALSE,"FL","Miami","11301 Sw 40th St",2022-08-11 20:34:06,2022-08-12
-81.688179,26.155437,FALSE,"FL","Naples","8875 Davis Blvd",2022-08-11 20:35:06,2022-08-12
-80.345713,25.716621,FALSE,"FL","Miami","9341 Sw 56th St",2022-08-11 20:35:06,2022-08-12
-80.292742,25.701277,FALSE,"FL","Miami","6150 S Dixie Hwy",2022-08-11 20:34:06,2022-08-12
-81.688622,26.149417,FALSE,"FL","Naples","9885 Collier Blvd",2022-08-11 20:35:06,2022-08-12
-80.431431,25.729033,FALSE,"FL","Miami","14699 Sw 42th St",2022-08-11 20:35:06,2022-08-12
-80.349437,25.702003,FALSE,"FL","Miami","9681 Sw 72nd St",2022-08-11 20:35:06,2022-08-12
-80.415976,25.714164,FALSE,"FL","Miami","13702 Sw 56th St",2022-08-11 20:34:06,2022-08-12
-80.447512,25.712198,FALSE,"FL","Miami","15710 Sw 56 St",2022-08-11 20:35:06,2022-08-12
-80.382764,25.685984,FALSE,"FL","Miami","11500 Sw 88th St",2022-08-11 20:35:06,2022-08-12
-80.403456,25.686063,FALSE,"FL","Miami","13101 N Kendall Drive",2022-08-11 20:37:06,2022-08-12
-81.771608,26.130056,FALSE,"FL","Naples","2886 E Tamiami Trl",2022-08-11 20:34:06,2022-08-12
-80.329566,25.652864,TRUE,"FL","Pinecrest","12647 S Dixie Hwy",2022-08-11 20:36:06,2022-08-12
-80.446643,25.684779,FALSE,"FL","Miami","15715 Sw 88th St",2022-08-11 20:35:06,2022-08-12
-80.407332,25.664239,FALSE,"FL","Miami","11115 Sw 132 Avenue",2022-08-11 20:37:06,2022-08-12
-80.383886,25.65558,FALSE,"FL","Miami","12198 Sw 117th Ave",2022-08-11 20:35:06,2022-08-12
-80.443349,25.670286,FALSE,"FL","Miami","15295 Sw 104th St",2022-08-11 20:37:06,2022-08-12
-80.336198,25.636053,FALSE,"FL","Miami","14401 S Dixie Hwy",2022-08-11 20:37:06,2022-08-12
-81.70224,26.066057,FALSE,"FL","Naples","12615 Tamiami Trail East",2022-08-11 20:37:06,2022-08-12
-80.376025,25.627942,FALSE,"FL","Miami","11207 Sw 152nd St",2022-08-11 20:37:06,2022-08-12
-80.415527,25.625854,FALSE,"FL","Miami","13708 Sw 152nd St",2022-08-11 20:37:06,2022-08-12
-80.352328,25.600886,TRUE,"FL","Perrine","18295 S Dixie Hwy",2022-08-11 20:36:06,2022-08-12
-80.379254,25.592569,FALSE,"FL","South Miami Heights","11575 Quail Roost Road",2022-08-11 20:36:06,2022-08-12
-80.336189,25.578119,FALSE,"FL","Miami","20315 Old Cutler Road",2022-08-11 20:37:06,2022-08-12
-80.414039,25.598176,FALSE,"FL","Miami","18340 Sw 137th Ave",2022-08-11 20:35:06,2022-08-12
-80.36734,25.579132,TRUE,"FL","Cutler Ridge","10855 Caribbean Blvd",2022-08-11 20:35:06,2022-08-12
-80.371613,25.550276,FALSE,"FL","Homestead","23351 Sw 112th Ave",2022-08-11 20:35:06,2022-08-12
-81.727494,25.952874,FALSE,"FL","Marco Island","899 N Collier Blvd",2022-08-11 20:36:06,2022-08-12
-80.426093,25.519399,FALSE,"FL","Naranja","26601 Us Hwy 1",2022-08-11 20:37:06,2022-08-12
-80.411901,25.499222,FALSE,"FL","Homestead","13690 Biscayne Dr",2022-08-08 01:00:06,2022-08-08
-80.459808,25.485196,FALSE,"FL","Homestead","30335 S Federal Hwy",2022-08-11 20:37:06,2022-08-12
-80.434625,25.477004,FALSE,"FL","Homestead","2880 Ne 8th St",2022-08-11 20:37:06,2022-08-12
-80.473083,25.457704,FALSE,"FL","Florida City","33501 S Dixie Hwy",2022-08-11 20:37:06,2022-08-12
-80.474594,25.442581,FALSE,"FL","Florida City","425 Se 1st Ave",2022-08-11 20:37:06,2022-08-12
-80.427325,25.108703,FALSE,"FL","Key Largo","101000 Overseas Hwy",2022-08-11 20:37:06,2022-08-12
-80.522609,25.004612,FALSE,"FL","Tavernier","91400 Overseas Hwy",2022-08-08 01:00:06,2022-08-08
-81.073326,24.716418,FALSE,"FL","Marathon","5595 Overseas Hwy",2022-08-11 20:37:06,2022-08-12
-81.756906,24.571897,FALSE,"FL","Key West","3704 N Roosevelt Blvd",2022-08-11 20:38:06,2022-08-12
