"lon","lat","is_broken","state","city","street","last_checked","date"
-75.80794,39.635821,FALSE,"MD","Elkton","226 Belle Hill Rd",2022-08-11 20:59:06,2022-08-12
-75.79274,39.60313,FALSE,"MD","Elkton","1000 E Pulaski Hwy",2022-08-11 20:59:06,2022-08-12
-75.827212,39.600573,FALSE,"MD","Elkton","101 E Pulaski Hwy",2022-08-11 20:59:06,2022-08-12
-75.947167,39.607939,FALSE,"MD","North East","2400 Pulaski Hwy",2022-08-11 20:59:06,2022-08-12
-76.055751,39.698322,FALSE,"MD","Rising Sun","10 Rising Sun Town Center",2022-08-11 20:59:06,2022-08-12
-76.100717,39.553384,FALSE,"MD","Havre De Grace","802 Pulaski Highway",2022-08-11 21:00:06,2022-08-12
-76.184676,39.523412,FALSE,"MD","Aberdeen","999 Beards Hill Rd",2022-08-11 21:00:06,2022-08-12
-76.176817,39.497476,FALSE,"MD","Aberdeen","744 S Philadelphia Blvd",2022-08-11 21:00:06,2022-08-12
-76.287045,39.554471,FALSE,"MD","Bel Air","2111 Churchville Rd",2022-08-11 21:00:06,2022-08-12
-76.248023,39.47925,TRUE,"MD","Belcamp","1325 Riverside Pkwy",2022-08-11 21:00:06,2022-08-12
-76.354571,39.566977,FALSE,"MD","Bel Air","Conowingo Road @ Hickory Bypass",2022-08-11 21:00:06,2022-08-12
-76.370504,39.557372,FALSE,"MD","Bel Air","1 Red Pump Rd",2022-08-11 21:00:06,2022-08-12
-76.327606,39.502663,FALSE,"MD","Bel Air","1906 Emmorton Rd",2022-08-11 21:00:06,2022-08-12
-76.353552,39.5264,FALSE,"MD","Bel Air","599-B Baltimore National Pike",2022-08-11 21:00:06,2022-08-12
-76.317882,39.462023,FALSE,"MD","Abingdon","404 Constant Friendship Blvd",2022-08-11 21:00:06,2022-08-12
-76.07186,39.230415,FALSE,"MD","Chestertown","875 Washington Ave",2022-08-11 21:00:06,2022-08-12
-76.306096,39.436053,FALSE,"MD","Edgewood","2201 Pulaski Hwy",2022-08-11 21:00:06,2022-08-12
-76.395434,39.491619,FALSE,"MD","Fallston","2404 Bel Air Road",2022-08-11 21:00:06,2022-08-12
-75.821544,38.894036,FALSE,"MD","Denton","605 N 6th St",2022-08-11 21:00:06,2022-08-12
-76.402523,39.337771,FALSE,"MD","Baltimore","3423 Eastern Blvd",2022-08-11 21:00:06,2022-08-12
-76.478111,39.400986,FALSE,"MD","Perry Hall","9106-9108 Belair Rd",2022-08-11 21:00:06,2022-08-12
-76.459196,39.378255,FALSE,"MD","Nottingham","8483 Cordon Way",2022-08-11 21:00:06,2022-08-12
-76.450982,39.368603,FALSE,"MD","Nottingham","5302 Campbell Blvd",2022-08-11 21:00:06,2022-08-12
-76.076241,39.031769,FALSE,"MD","Centreville","2490 Centreville Rd",2022-08-11 21:00:06,2022-08-12
-76.439994,39.32906,TRUE,"MD","Baltimore","2119 Eastern Blvd",2022-08-08 01:00:06,2022-08-08
-76.445117,39.333528,FALSE,"MD","Middle River","1472 Martin Blvd",2022-08-11 21:00:06,2022-08-12
-76.510243,39.379152,FALSE,"MD","Nottingham","8118 Perry Hills Ct (Wm# 2045)",2022-08-11 21:00:06,2022-08-12
-76.443192,39.307576,FALSE,"MD","Baltimore","205 Back River Neck Rd",2022-08-11 21:00:06,2022-08-12
-76.508685,39.373813,FALSE,"MD","Parkville","7927 Belair Road",2022-08-11 21:01:06,2022-08-12
-76.540369,39.397685,FALSE,"MD","Baltimore","2107 E Joppa Rd",2022-08-11 21:01:06,2022-08-12
-76.464459,39.31343,FALSE,"MD","Baltimore","1000 Eastern Blvd",2022-08-11 21:00:06,2022-08-12
-76.487882,39.33732,FALSE,"MD","Rosedale","6420 Petrie Way",2022-08-11 21:00:06,2022-08-12
-76.489914,39.336323,FALSE,"MD","Baltimore","6421 Petrie Way",2022-08-11 21:00:06,2022-08-12
-76.505608,39.338755,FALSE,"MD","Baltimore","6315 Kenwood Ave",2022-08-11 21:00:06,2022-08-12
-76.565222,39.396579,FALSE,"MD","Towson","1619 E Joppa Rd",2022-08-08 01:00:06,2022-08-08
-76.65025,39.494335,FALSE,"MD","Hunt Valley","11310 York Rd",2022-08-11 21:00:06,2022-08-12
-76.62727,39.441908,FALSE,"MD","Timonium","2116 York Rd",2022-08-11 21:00:06,2022-08-12
-76.566954,39.372808,FALSE,"MD","Baltimore","7309 Mc Clean Blvd",2022-08-11 21:01:06,2022-08-12
-76.577897,39.384705,FALSE,"MD","Baltimore","6830 Loch Raven Blvd",2022-08-11 21:01:06,2022-08-12
-76.471023,39.271945,FALSE,"MD","Baltimore","3954 N Point Blvd",2022-08-11 21:00:06,2022-08-12
-76.544044,39.342985,FALSE,"MD","Baltimore","5713 Belair Rd",2022-08-11 21:00:06,2022-08-12
-76.608799,39.408845,FALSE,"MD","Towson","934 York Rd",2022-08-11 21:01:06,2022-08-12
-76.525502,39.313056,FALSE,"MD","Baltimore","7500 Pulaski Hwy",2022-08-11 21:01:06,2022-08-12
-76.507939,39.29155,FALSE,"MD","Baltimore","1020 Northpoint Blvd",2022-08-11 21:01:06,2022-08-12
-76.568476,39.342813,FALSE,"MD","Baltimore","4635-37 Harford Rd",2022-08-11 21:00:06,2022-08-12
-76.544693,39.315155,FALSE,"MD","Baltimore","6001 Moravia Rd",2022-08-11 21:01:06,2022-08-12
-76.50039,39.269102,FALSE,"MD","Baltimore","7734 Wise Ave",2022-08-11 21:01:06,2022-08-12
-76.536686,39.288077,FALSE,"MD","Baltimore","6540 Eastern Avenue",2022-08-11 21:00:06,2022-08-12
-76.590571,39.340528,FALSE,"MD","Baltimore","1600 Argonne Dr",2022-08-11 21:01:06,2022-08-12
-76.561964,39.309395,FALSE,"MD","Baltimore","4526 Erdman Ave",2022-08-11 21:01:06,2022-08-12
-76.61021,39.350388,FALSE,"MD","Baltimore","5100 York Rd",2022-08-11 21:01:06,2022-08-12
-76.526675,39.262489,FALSE,"MD","Dundalk","2222 Dundalk Ave",2022-08-11 21:00:06,2022-08-12
-76.546617,39.278814,FALSE,"MD","Baltimore","5600 Odonnell Street Cut Off",2022-08-11 21:00:06,2022-08-12
-76.56914,39.29579,FALSE,"MD","Baltimore","3401 Pulaski Hwy",2022-08-11 21:01:06,2022-08-12
-75.055911,38.428695,FALSE,"MD","Ocean City","12301 Coastal Hwy",2022-08-11 21:00:06,2022-08-12
-76.596111,39.313688,FALSE,"MD","Baltimore","2001 N Broadway",2022-08-11 21:01:06,2022-08-12
-76.609934,39.323284,FALSE,"MD","Baltimore","2840 Greenmount Ave",2022-08-11 21:00:06,2022-08-12
-75.787237,38.696872,FALSE,"MD","Federalsburg","327 Bloomingdale Ave",2022-08-11 21:01:06,2022-08-12
-76.636671,39.335614,FALSE,"MD","Baltimore","3920 Falls Rd",2022-08-11 21:00:06,2022-08-12
-76.845934,39.595565,FALSE,"MD","Hampstead","4225 Northwoods Trl",2022-08-11 21:01:06,2022-08-12
-76.617139,39.310641,FALSE,"MD","Baltimore","15 W North Ave",2022-08-11 21:00:06,2022-08-12
-76.619251,39.290334,FALSE,"MD","Baltimore","25 N Howard St",2022-08-11 21:01:06,2022-08-12
-76.602161,39.271601,FALSE,"MD","Baltimore","825 East Fort Avenue",2022-08-11 21:00:06,2022-08-12
-76.667958,39.33941,FALSE,"MD","Baltimore","4401 Reistertown Rd",2022-08-11 21:00:06,2022-08-12
-76.289274,38.976655,FALSE,"MD","Chester","12 Chester Plaza",2022-08-11 21:01:06,2022-08-12
-76.693723,39.3477,FALSE,"MD","Baltimore","4205-15 Mortimer Ave",2022-08-11 21:01:06,2022-08-12
-76.716683,39.367451,FALSE,"MD","Baltimore","502 Reisterstown Rd",2022-08-11 21:00:06,2022-08-12
-76.731293,39.381551,FALSE,"MD","Baltimore","1706 Reistertown Rd",2022-08-11 21:01:06,2022-08-12
-76.516815,39.157185,FALSE,"MD","Pasadena","8490 Fort Smallwood Rd",2022-08-11 21:00:06,2022-08-12
-76.656737,39.292978,FALSE,"MD","Baltimore","2501-13 W Franklin Str",2022-08-11 21:00:06,2022-08-12
-76.311811,38.975918,FALSE,"MD","Stevensville","410 Thompson Creek Mall",2022-08-11 21:00:06,2022-08-12
-76.611871,39.238874,TRUE,"MD","Baltimore","101 W Patapsco Ave",2022-08-08 01:00:06,2022-08-08
-76.712922,39.336698,FALSE,"MD","Baltimore","6005 Liberty Rd",2022-08-11 21:00:06,2022-08-12
-76.613124,39.224198,FALSE,"MD","Baltimore","5045 Ritchie Hwy",2022-08-11 21:00:06,2022-08-12
-75.073844,38.361166,FALSE,"MD","Ocean City","3201 Coastal Hwy",2022-08-11 21:01:06,2022-08-12
-76.671423,39.280542,FALSE,"MD","Baltimore","3249 Frederick Ave",2022-08-11 21:01:06,2022-08-12
-76.818089,39.449762,FALSE,"MD","Reisterstown","12012 Reisterstown Rd",2022-08-11 21:00:06,2022-08-12
-76.060755,38.779531,FALSE,"MD","Easton","8394 Ocean Gateway",2022-08-11 21:01:06,2022-08-12
-76.516762,39.119468,FALSE,"MD","Pasadena","45 Magothy Beach Rd",2022-08-11 21:01:06,2022-08-12
-76.598308,39.196146,FALSE,"MD","Glen Burnie","569 Ordnance Rd",2022-08-11 21:00:06,2022-08-12
-75.165136,38.377198,FALSE,"MD","Ocean Pines","11041 Racetrack Rd",2022-08-11 21:01:06,2022-08-12
-76.663815,39.256965,FALSE,"MD","Baltimore","3223 Washington Blvd",2022-08-11 21:01:06,2022-08-12
-76.08196,38.781845,FALSE,"MD","Easton","219 & Marlboro Ave",2022-08-11 21:01:06,2022-08-12
-76.680767,39.270342,FALSE,"MD","Baltimore","3619 Wilkins Ave",2022-08-11 21:00:06,2022-08-12
-76.765025,39.355771,FALSE,"MD","Baltimore","8227 Liberty Rd",2022-08-11 21:01:06,2022-08-12
-76.810952,39.405066,FALSE,"MD","Owings Mills","9774 Groffs Mill Dr",2022-08-11 21:01:06,2022-08-12
-76.613419,39.186414,FALSE,"MD","Glen Burnie","6906 Ritchie Hwy",2022-08-11 21:01:06,2022-08-12
-76.557181,39.130499,FALSE,"MD","Pasadena","350 Mountain Rd",2022-08-11 21:01:06,2022-08-12
-76.737698,39.312452,FALSE,"MD","Baltimore","6650 Security Boulevard",2022-08-11 21:00:06,2022-08-12
-76.444276,39.0259,FALSE,"MD","Annapolis","1450 Whitehall Rd",2022-08-11 21:01:06,2022-08-12
-76.658575,39.223993,FALSE,"MD","Linthicum","717 Nursery Rd",2022-08-11 21:01:06,2022-08-12
-76.749116,39.313418,FALSE,"MD","Baltimore","1655 Belmont Ave",2022-08-11 21:01:06,2022-08-12
-76.727557,39.288543,FALSE,"MD","Baltimore","5637 Baltimore National Pike",2022-08-11 21:01:06,2022-08-12
-76.811088,39.375055,FALSE,"MD","Randallstown","9500 Liberty Rd",2022-08-11 21:01:06,2022-08-12
-76.585372,39.134542,FALSE,"MD","Glen Burnie","7960 Baltimore Annapolis Blvd",2022-08-11 21:00:06,2022-08-12
-75.165786,38.344639,FALSE,"MD","Berlin","11315 Samuel Bowen Road",2022-08-11 21:01:06,2022-08-12
-76.621925,39.165091,FALSE,"MD","Glen Burnie","7415 Governor Ritchie Hwy",2022-08-11 21:01:06,2022-08-12
-76.727596,39.272648,FALSE,"MD","Catonsville","501 Frederick Rd",2022-08-11 21:01:06,2022-08-12
-76.632203,39.172075,FALSE,"MD","Glen Burnie","7379 Baltimore Annapolis Rd",2022-08-11 21:00:06,2022-08-12
-76.98407,39.585445,TRUE,"MD","Westminster","280 Woodward Rd",2022-08-11 21:01:06,2022-08-12
-76.752486,39.284708,FALSE,"MD","Baltimore","1011 N Rolling Rd",2022-08-11 21:01:06,2022-08-12
-76.545308,39.07808,FALSE,"MD","Severna Park","541 Ritchie Hwy",2022-08-11 21:01:06,2022-08-12
-76.548666,39.079321,FALSE,"MD","Severna Park","502 Baltimore Annapolis Hwy",2022-08-11 21:01:06,2022-08-12
-76.978686,39.568075,FALSE,"MD","Westminster","520 Baltimore Blvd",2022-08-11 21:01:06,2022-08-12
-76.665085,39.180622,FALSE,"MD","Linthicum","Southwest Terminal",2022-08-11 21:01:06,2022-08-12
-76.504959,39.029326,FALSE,"MD","Arnold","1464 Ritchie Hwy",2022-08-11 21:01:06,2022-08-12
-76.668343,39.179615,FALSE,"MD","Linthicum","Bwi Airport",2022-08-11 21:01:06,2022-08-12
-76.682349,39.191589,FALSE,"MD","Linthicum Heights","778 A Elkridge Landing Rd",2022-08-11 21:01:06,2022-08-12
-76.723835,39.209126,FALSE,"MD","Elkridge","6225 Washington Blvd",2022-08-11 21:00:06,2022-08-12
-76.634082,39.117822,TRUE,"MD","Millersville","680 Old Mill Rd",2022-08-11 21:01:06,2022-08-12
-76.82074,39.282742,FALSE,"MD","Ellicott City","3200 N Ridge Rd",2022-08-11 21:01:06,2022-08-12
-76.686749,39.137342,FALSE,"MD","Severn","810 Reece Road",2022-08-11 21:01:06,2022-08-12
-75.565266,38.416432,FALSE,"MD","Salisbury","2709 N Salisbury Blvd",2022-08-11 21:01:06,2022-08-12
-76.932826,39.399656,FALSE,"MD","Eldersburg","1722 Liberty Rd",2022-08-11 21:01:06,2022-08-12
-76.527708,38.98049,FALSE,"MD","Annapolis","1941 West St",2022-08-11 21:02:06,2022-08-12
-76.832644,39.277026,FALSE,"MD","Ellicott City","9303 Baltimore National Pike",2022-08-11 21:01:06,2022-08-12
-76.491062,38.948851,FALSE,"MD","Annapolis","897 Bay Ridge Rd",2022-08-11 21:01:06,2022-08-12
-76.815992,39.251907,FALSE,"MD","Ellicott City","4396 Montgomery Rd",2022-08-11 21:02:06,2022-08-12
-76.725995,39.153172,FALSE,"MD","Hanover","7053 Arundel Mills Blvd",2022-08-11 21:01:06,2022-08-12
-76.54922,38.987674,FALSE,"MD","Annapolis","2130 Generals Hwy",2022-08-11 21:01:06,2022-08-12
-76.73242,39.155667,FALSE,"MD","Hanover","7081 Arundel Mills Cir",2022-08-11 21:02:06,2022-08-12
-76.799655,39.209583,FALSE,"MD","Columbia","8211 Snowden River Pky",2022-08-11 21:01:06,2022-08-12
-76.688878,39.081734,FALSE,"MD","Odenton","1136 Annapolis Rd",2022-08-11 21:02:06,2022-08-12
-76.7987,39.187031,FALSE,"MD","Columbia","8305 Benson Dr",2022-08-11 21:01:06,2022-08-12
-75.548384,38.367104,FALSE,"MD","Salisbury","298 Tilghman Rd",2022-08-11 21:01:06,2022-08-12
-76.783607,39.168282,FALSE,"MD","Jessup","7878 Pocomoke Ave",2022-08-11 21:02:06,2022-08-12
-77.157486,39.648818,FALSE,"MD","Taneytown","520 E Baltimore St",2022-08-11 21:01:06,2022-08-12
-76.819052,39.196985,FALSE,"MD","Columbia","6385 Dobbin Rd",2022-08-11 21:01:06,2022-08-12
-76.672237,39.040099,FALSE,"MD","Gambrills","881 Md Rt 3",2022-08-11 21:02:06,2022-08-12
-76.861789,39.214924,FALSE,"MD","Columbia","10300 Little Patuxent Pky",2022-08-11 21:01:06,2022-08-12
-75.617954,38.368397,FALSE,"MD","Salisbury","1205 Parsons Rd",2022-08-11 21:02:06,2022-08-12
-76.566163,38.930279,FALSE,"MD","Edgewater","113 Mitchells Chance Rd",2022-08-11 21:01:06,2022-08-12
-76.844888,39.186232,FALSE,"MD","Columbia","7244 Cradle Rock Way",2022-08-11 21:01:06,2022-08-12
-76.809598,39.145282,FALSE,"MD","Jessup","8700 Washington Blvd",2022-08-11 21:02:06,2022-08-12
-76.8893,39.221893,FALSE,"MD","Columbia","5485 Harpers Farm Road",2022-08-11 21:01:06,2022-08-12
-76.69392,39.022964,FALSE,"MD","Gambrills","1130 Route 3 S",2022-08-11 21:02:06,2022-08-12
-76.065962,38.564607,FALSE,"MD","Cambridge","Rte 50/Cedar St",2022-08-11 21:01:06,2022-08-12
-76.864231,39.170717,FALSE,"MD","Columbia","8600 Guilford Road",2022-08-11 21:01:06,2022-08-12
-76.802674,39.0986,FALSE,"MD","Laurel","3549 Russett Green E",2022-08-11 21:02:06,2022-08-12
-75.611929,38.330283,FALSE,"MD","Salisbury","407 N Fruitland Blvd",2022-08-11 21:01:06,2022-08-12
-76.806402,39.098654,FALSE,"MD","Laurel","3382 Laurel Fort Meade Rd",2022-08-11 21:02:06,2022-08-12
-76.836485,39.110604,FALSE,"MD","Laurel","10001 Washington Boulevard",2022-08-11 21:01:06,2022-08-12
-76.850562,39.119311,FALSE,"MD","Laurel","9261 All Saints Road",2022-08-11 21:01:06,2022-08-12
-76.937327,39.210252,FALSE,"MD","Clarksville","6095 Day Break Cir",2022-08-11 21:01:06,2022-08-12
-77.067939,39.349967,FALSE,"MD","Woodbine","702 Lisbon Center Dr",2022-08-11 21:01:06,2022-08-12
-76.855027,39.094155,FALSE,"MD","Laurel","14810 Baltimore Ave",2022-08-11 21:01:06,2022-08-12
-76.908322,39.147921,FALSE,"MD","Fulton","8191 Westside Blvd",2022-08-11 21:02:06,2022-08-12
-77.316807,39.703398,FALSE,"MD","Emmitsburg","517 E Main Street",2022-08-11 21:01:06,2022-08-12
-76.849073,39.074506,FALSE,"MD","Laurel","13210 Laurel-Bowie Road",2022-08-11 21:01:06,2022-08-12
-76.718817,38.949673,FALSE,"MD","Bowie","4306 Nw Crain Hwy",2022-08-11 21:02:06,2022-08-12
-76.756549,38.972998,FALSE,"MD","Bowie","14300 Gallant Fox Ln",2022-08-11 21:01:06,2022-08-12
-75.376911,38.187717,FALSE,"MD","Snow Hill","5616 Market St",2022-08-11 21:01:06,2022-08-12
-76.933469,39.11026,FALSE,"MD","Burtonsville","15569 Old Columbia Pike",2022-08-11 21:01:06,2022-08-12
-76.823043,38.989342,FALSE,"MD","Seabrook","10585 Greenbelt Road",2022-08-11 21:01:06,2022-08-12
-77.164599,39.363313,FALSE,"MD","Mt. Airy","1706 Ridgeside Drive",2022-08-11 21:02:06,2022-08-12
-76.94723,39.082833,FALSE,"MD","Silver Spring","13800 Outlet Dr",2022-08-11 21:02:06,2022-08-12
-76.916841,39.027919,FALSE,"MD","Beltsville","10531 Baltimore Ave",2022-08-11 21:01:06,2022-08-12
-76.937462,39.047858,FALSE,"MD","Beltsville","4000 Powder Mill Rd",2022-08-11 21:01:06,2022-08-12
-76.954273,39.053608,FALSE,"MD","Silver Spring","12044 Cherry Hill Rd",2022-08-11 21:01:06,2022-08-12
-76.862056,38.961321,FALSE,"MD","Lanham","9007 Annapolis Rd",2022-08-11 21:02:06,2022-08-12
-76.795346,38.900029,FALSE,"MD","Mitchellville","12168 Central Ave",2022-08-11 21:01:06,2022-08-12
-76.535592,38.688587,FALSE,"MD","Chesapeake Beach","7925 Bayside Rd",2022-08-11 21:01:06,2022-08-12
-76.905281,38.996314,FALSE,"MD","Berwyn Heights","6219 Greenbelt Road",2022-08-11 21:02:06,2022-08-12
-77.067299,39.151656,FALSE,"MD","Olney","18010 Georgia Ave",2022-08-11 21:01:06,2022-08-12
-77.256668,39.384961,FALSE,"MD","New Market","11700 Morning Gate Ln",2022-08-11 21:01:06,2022-08-12
-75.701049,38.214228,FALSE,"MD","Princess Anne","12112 Brittingham Ln",2022-08-11 21:02:06,2022-08-12
-77.00092,39.075985,FALSE,"MD","Silver Spring","504 E Randolph Rd",2022-08-11 21:01:06,2022-08-12
-76.737532,38.823591,FALSE,"MD","Upper Marlboro","15475 Marlboro Pike",2022-08-11 21:02:06,2022-08-12
-76.83654,38.902395,FALSE,"MD","Largo","1030 Largo Center Dr",2022-08-11 21:01:06,2022-08-12
-76.933008,38.992171,FALSE,"MD","College Park","8301 Baltimore Blvd",2022-08-11 21:02:06,2022-08-12
-77.418723,39.613511,TRUE,"MD","Thurmont","200 Frederick Road",2022-08-11 21:01:06,2022-08-12
-77.204444,39.290104,FALSE,"MD","Damascus","26429 Ridge Rd",2022-08-11 21:02:06,2022-08-12
-77.346275,39.48336,FALSE,"MD","Walkersville","20 E Frederick St",2022-08-11 21:02:06,2022-08-12
-76.990441,39.038656,FALSE,"MD","Silver Spring","11146 New Hampshire Ave  Unit #1202282",2022-08-11 21:01:06,2022-08-12
-76.881184,38.927855,FALSE,"MD","Landover","7708 Landover Rd",2022-08-11 21:02:06,2022-08-12
-77.046997,39.090881,FALSE,"MD","Silver Spring","2207 Bel Pre Rd",2022-08-11 21:01:06,2022-08-12
-76.919383,38.959446,FALSE,"MD","Riverdale","5600 Riverdale Rd",2022-08-11 21:01:06,2022-08-12
-76.90742,38.940033,FALSE,"MD","Landover Hills","6200 Annapolis Rd",2022-08-11 21:01:06,2022-08-12
-76.854547,38.890853,FALSE,"MD","Landover","8710 Central Ave",2022-08-11 21:02:06,2022-08-12
-76.659331,38.725311,FALSE,"MD","Dunkirk","10850 Town Center Blvd",2022-08-11 21:02:06,2022-08-12
-76.939496,38.964256,FALSE,"MD","Riverdale","6228 Baltimore Blvd",2022-08-11 21:02:06,2022-08-12
-76.862078,38.889256,FALSE,"MD","Capitol Heights","20 Ritchie Rd",2022-08-11 21:02:06,2022-08-12
-76.970613,38.984558,FALSE,"MD","Hyattsville","2306 University Blvd",2022-08-11 21:02:06,2022-08-12
-76.957531,38.968118,FALSE,"MD","Hyattsville","3500 East West Hwy",2022-08-11 21:02:06,2022-08-12
-76.850793,38.866501,FALSE,"MD","Capitol Heights","1701 Ritchie Station Ct",2022-08-11 21:02:06,2022-08-12
-77.049642,39.059175,FALSE,"MD","Silver Spring","12313 Georgia Ave",2022-08-11 21:01:06,2022-08-12
-77.013892,39.020694,FALSE,"MD","Silver Spring","106 W University Blvd",2022-08-11 21:02:06,2022-08-12
-77.153435,39.172054,FALSE,"MD","Gaithersburg","19230 Woodfield Rd",2022-08-11 21:01:06,2022-08-12
-76.987094,38.989475,FALSE,"MD","Langley Park","7911 New Hampshire Ave",2022-08-11 21:02:06,2022-08-12
-76.900674,38.9014,FALSE,"MD","Seat Pleasant","6131 Martin Luther King Jr Hwy",2022-08-11 21:02:06,2022-08-12
-77.08018,39.078719,FALSE,"MD","Silver Spring","13701 Connecticuit Ave",2022-08-11 21:02:06,2022-08-12
-77.144546,39.145532,FALSE,"MD","Derwood","7200 Muncaster Mill Road",2022-08-11 21:02:06,2022-08-12
-76.946826,38.936233,FALSE,"MD","Colmar Manor","4101 Bladensburg Rd",2022-08-11 21:01:06,2022-08-12
-77.057385,39.039636,FALSE,"MD","Kensington","2741 University Blvd",2022-08-11 21:02:06,2022-08-12
-77.188126,39.184968,FALSE,"MD","Gaithersburg","9100 Rothbury Dr",2022-08-11 21:02:06,2022-08-12
-77.054962,39.03647,FALSE,"MD","Wheaton","11160 Veirs Mill Rd",2022-08-11 21:02:06,2022-08-12
-77.16463,39.156299,FALSE,"MD","Gaithersburg","18273 Flower Hill Way",2022-08-11 21:01:06,2022-08-12
-77.081824,39.056202,FALSE,"MD","Wheaton","12135 Viers Mill Rd",2022-08-11 21:02:06,2022-08-12
-76.892449,38.868422,FALSE,"MD","Capitol Heights","1420 Addison Rd S",2022-08-11 21:01:06,2022-08-12
-77.393731,39.446229,FALSE,"MD","Frederick","Sr 26 & Wormans Mill Rd",2022-08-11 21:02:06,2022-08-12
-77.030197,38.995117,FALSE,"MD","Silver Spring","8407 Colesville Rd",2022-08-11 21:02:06,2022-08-12
-77.001895,38.965806,FALSE,"MD","Takoma Park","6301 New Hampshire Ave",2022-08-11 21:01:06,2022-08-12
-77.115041,39.074394,FALSE,"MD","Rockville","2101 Viers Mill Rd",2022-08-11 21:02:06,2022-08-12
-77.204169,39.173456,FALSE,"MD","Gaithersburg","19388 Montgomery Village Ave",2022-08-11 21:02:06,2022-08-12
-77.167487,39.129743,FALSE,"MD","Rockville","16701 Crabbs Branch Way",2022-08-11 21:02:06,2022-08-12
-75.559087,38.074761,FALSE,"MD","Pocomoke","Linden Ave & Lynn Haven Dr",2022-08-11 21:02:06,2022-08-12
-76.890702,38.844539,FALSE,"MD","Forestville","6704 Chavez Ln",2022-08-11 21:01:06,2022-08-12
-77.391034,39.408546,FALSE,"MD","Frederick","950 E Patrick St",2022-08-11 21:02:06,2022-08-12
-77.163513,39.114565,FALSE,"MD","Derwood","15801 Frederick Rd",2022-08-11 21:02:06,2022-08-12
-76.931241,38.873168,TRUE,"MD","Capitol Heights","4777 Marlboro Pike",2022-08-11 21:02:06,2022-08-12
-77.244535,39.203975,FALSE,"MD","Germantown","21121 Frederick Road",2022-08-11 21:01:06,2022-08-12
-77.128655,39.068187,FALSE,"MD","Rockville","1390 Rockville Pike",2022-08-11 21:02:06,2022-08-12
-76.807209,38.760498,FALSE,"MD","Upper Marlboro","9450 Crain Highway",2022-08-11 21:02:06,2022-08-12
-77.113183,39.04671,FALSE,"MD","Rockville","11564 Rockville Pike",2022-08-11 21:02:06,2022-08-12
-77.206922,39.148956,FALSE,"MD","Gaithersburg","465 N Fredrick",2022-08-11 21:02:06,2022-08-12
-77.420987,39.43102,FALSE,"MD","Frederick","1399 W 7th St",2022-08-11 21:02:06,2022-08-12
-77.348893,39.325666,FALSE,"MD","Urbana","3406 Urbana Pike",2022-08-11 21:01:06,2022-08-12
-76.886498,38.821794,FALSE,"MD","Suitland","4777 Allentown Road Se",2022-08-11 21:02:06,2022-08-12
-77.252421,39.198746,FALSE,"MD","Germantown","20910 Frederick Rd",2022-08-11 21:02:06,2022-08-12
-76.922077,38.850653,FALSE,"MD","Suitland","4835 Silverhill Rd",2022-08-11 21:02:06,2022-08-12
-77.239563,39.178398,FALSE,"MD","Germantown","19660 Gunners Branch Dr",2022-08-11 21:02:06,2022-08-12
-77.215538,39.144935,FALSE,"MD","Gaithersburg","83 Bureau Dr",2022-08-11 21:02:06,2022-08-12
-77.438033,39.439816,FALSE,"MD","Frederick","2020 Yellow Spring Rd",2022-08-11 21:02:06,2022-08-12
-77.408821,39.390053,FALSE,"MD","Frederick","7403 Grove Rd",2022-08-11 21:02:06,2022-08-12
-77.22197,39.140671,FALSE,"MD","Gaithersburg","666 Quince Orchard Rd",2022-08-11 21:02:06,2022-08-12
-77.430143,39.407569,FALSE,"MD","Frederick","423 Jefferson St",2022-08-11 21:02:06,2022-08-12
-77.410903,39.373969,FALSE,"MD","Frederick","5203 Buckeystown Pike",2022-08-11 21:01:06,2022-08-12
-77.269514,39.180828,TRUE,"MD","Germantown","12982 Middlebrook Rd",2022-08-11 21:02:06,2022-08-12
-76.950472,38.843727,TRUE,"MD","Hillcrest Heights","3501 Branch Ave",2022-08-11 21:02:06,2022-08-12
-77.44947,39.418889,FALSE,"MD","Frederick","1275 W Patrick St",2022-08-11 21:02:06,2022-08-12
-76.592209,38.551287,FALSE,"MD","Prince Frederick","515 N Solomons Island Rd",2022-08-08 01:00:06,2022-08-08
-77.157868,39.041813,FALSE,"MD","Potomac","11301 Seven Locks Rd",2022-08-11 21:02:06,2022-08-12
-76.894072,38.784713,FALSE,"MD","Clinton","6515 Old Alexandria Ferry Road",2022-08-11 21:01:06,2022-08-12
-77.14591,39.024035,FALSE,"MD","Bethesda","7101 Democracy Blvd",2022-08-11 21:02:06,2022-08-12
-76.889572,38.772291,FALSE,"MD","Clinton","8755 Branch Ave",2022-08-11 21:02:06,2022-08-12
-77.467203,39.42167,FALSE,"MD","Frederick","1501 Garret Dr",2022-08-11 21:02:06,2022-08-12
-76.886317,38.766633,FALSE,"MD","Clinton","8905 Stuart Lane",2022-08-11 21:02:06,2022-08-12
-77.104356,38.964725,FALSE,"MD","Bethesda","5214 River Rd",2022-08-11 21:02:06,2022-08-12
-77.274318,39.146726,FALSE,"MD","Germantown","18000 Mateny Rd",2022-08-11 21:02:06,2022-08-12
-76.928851,38.792589,FALSE,"MD","Ft Washington","7100 Allentown Road",2022-08-11 21:02:06,2022-08-12
-77.251871,39.117249,FALSE,"MD","Gaithersburg","12130 Darnstown Rd",2022-08-11 21:02:06,2022-08-12
-76.964173,38.813793,FALSE,"MD","Oxon Hill","5500 Saint Barnabas Rd",2022-08-11 21:02:06,2022-08-12
-76.976252,38.804601,FALSE,"MD","Oxon Hill","6126 Oxon Hill Rd",2022-08-11 21:02:06,2022-08-12
-76.997762,38.81489,TRUE,"MD","Forest Heights","5501 Livingston Rd",2022-08-11 21:02:06,2022-08-12
-77.566957,39.498944,FALSE,"MD","Myersville","9615 Myersville-Middletown Rd",2022-08-11 21:02:06,2022-08-12
-76.874546,38.677266,FALSE,"MD","Brandywine","15806 Crain Hwy",2022-08-11 21:02:06,2022-08-12
-77.013841,38.789721,FALSE,"MD","Oxon Hill","121 North Cove Terrace",2022-08-11 21:02:06,2022-08-12
-77.70395,39.662355,FALSE,"MD","Hagerstown","170 Northern Avenue",2022-08-11 21:02:06,2022-08-12
-76.994357,38.75713,FALSE,"MD","Fort Washington","9596 Livingston Rd",2022-08-11 21:02:06,2022-08-12
-76.878204,38.655211,FALSE,"MD","Waldorf","2065 Crain Highway",2022-08-11 21:02:06,2022-08-12
-77.691882,39.614081,FALSE,"MD","Hagerstown","1737 Dual Hwy",2022-08-11 21:02:06,2022-08-12
-77.731235,39.688345,FALSE,"MD","Hagerstown","18411 Maugans Ave",2022-08-11 21:02:06,2022-08-12
-77.713994,39.639585,FALSE,"MD","Hagerstown","316 E Washington St",2022-08-11 21:02:06,2022-08-12
-76.461029,38.345736,FALSE,"MD","Solomons","13500 Hg Trueman Road",2022-08-11 21:03:06,2022-08-12
-76.991092,38.725709,FALSE,"MD","Fort Washington","996 E Swan Creek",2022-08-11 21:02:06,2022-08-12
-77.410931,39.144242,FALSE,"MD","Poolesville","19630 Fisher Ave",2022-08-11 21:02:06,2022-08-12
-76.906642,38.629281,FALSE,"MD","Waldorf","3000 Crain Hwy",2022-08-11 21:02:06,2022-08-12
-77.728665,39.602871,FALSE,"MD","Hagerstown","10525 Sharpsburg Pike",2022-08-11 21:03:06,2022-08-12
-77.757941,39.653746,FALSE,"MD","Hagerstown","17601 Garland Groh Blvd",2022-08-11 21:02:06,2022-08-12
-76.901758,38.621904,FALSE,"MD","Waldorf","3300 Leonardtown Rd",2022-08-11 21:03:06,2022-08-12
-75.844569,37.991144,FALSE,"MD","Crisfield","10 Maryland Ave",2022-08-11 21:03:06,2022-08-12
-77.765697,39.627684,TRUE,"MD","Hagerstown","1729 Massey Blvd",2022-08-11 21:02:06,2022-08-12
-76.922785,38.615681,FALSE,"MD","Waldorf","11025 Mall Circle",2022-08-11 21:03:06,2022-08-12
-76.774416,38.493766,FALSE,"MD","Charlotte Hall","30050 Three Notch Rd",2022-08-11 21:02:06,2022-08-12
-77.783012,39.629616,FALSE,"MD","Hagerstown","16921 Halfway Blvd",2022-08-11 21:03:06,2022-08-12
-76.508177,38.296549,FALSE,"MD","California","Three Notch Road   Old Rolling Road",2022-08-11 21:02:06,2022-08-12
-76.465824,38.260123,FALSE,"MD","Great Mills","21600 Great Mills Road",2022-08-11 21:03:06,2022-08-12
-77.640508,39.337431,FALSE,"MD","Knoxville","854 Jefferson Pike",2022-08-11 21:02:06,2022-08-12
-77.808117,39.604519,FALSE,"MD","Williamsport","313 East Potomac Street",2022-08-11 21:03:06,2022-08-12
-77.072243,38.628008,FALSE,"MD","Bryans Road","3050 Marshall Hall Rd",2022-08-11 21:02:06,2022-08-12
-76.984391,38.545758,FALSE,"MD","Laplata","109 Drury Drive",2022-08-11 21:03:06,2022-08-12
-76.659387,38.30508,FALSE,"MD","Leonardtown","40950 Merchants Ln",2022-08-11 21:03:06,2022-08-12
-76.984382,38.536685,FALSE,"MD","La Plata","6385 Crain Highway",2022-08-11 21:03:06,2022-08-12
-77.927545,39.655655,FALSE,"MD","Clear Spring","12820 Clear Spring Rd",2022-08-11 21:03:06,2022-08-12
-78.716293,39.671818,FALSE,"MD","Cumberland","13300 Ali Ghan Road Ne",2022-08-11 21:03:06,2022-08-12
-78.759572,39.652725,FALSE,"MD","Cumberland","22 Queen City Dr",2022-08-11 21:03:06,2022-08-12
-78.754575,39.631199,FALSE,"MD","Cumberland","620 Industrial Blvd",2022-08-11 21:03:06,2022-08-12
-78.837712,39.636322,FALSE,"MD","La Vale","1242 National Hwy",2022-08-11 21:03:06,2022-08-12
-78.835057,39.624928,FALSE,"MD","Lavale","12500 Country Club Mall Rd",2022-08-11 21:03:06,2022-08-12
-78.847968,39.57911,FALSE,"MD","Cresaptown","15713 Mcmullen Hwy Sw",2022-08-11 21:03:06,2022-08-12
-78.910497,39.651016,FALSE,"MD","Frostburg","17700 National Hwy",2022-08-11 21:03:06,2022-08-12
-79.040132,39.480642,FALSE,"MD","Westernport","182 Church St",2022-08-11 21:03:06,2022-08-12
-79.246806,39.694156,FALSE,"MD","Grantsville","4098 Nationmal Pike",2022-08-11 21:04:06,2022-08-12
-79.328147,39.501648,FALSE,"MD","Oakland","19549 Garrett Hwy",2022-08-11 21:04:06,2022-08-12
-79.404822,39.411014,FALSE,"MD","Oakland","19 N 3rd St",2022-08-11 21:04:06,2022-08-12
