"lon","lat","is_broken","state","city","street","last_checked","date"
-74.795079,40.210447,FALSE,"PA","Morrisville","321 W Trenton Ave",2022-08-11 20:58:06,2022-08-12
-74.966217,40.363557,FALSE,"PA","New Hope","324 W Bridge St",2022-08-11 20:58:06,2022-08-12
-74.851537,40.171549,FALSE,"PA","Fairless Hills","475 S Oxford Valley Rd",2022-08-11 20:58:06,2022-08-12
-74.733775,41.35172,FALSE,"PA","Milford","Rt 6 & 209",2022-08-11 20:58:06,2022-08-12
-74.829201,40.132689,FALSE,"PA","Levittown","Us Route 13 Haines Rd",2022-08-11 20:57:06,2022-08-12
-74.859362,40.151127,FALSE,"PA","Levittown","6606 New Falls Rd",2022-08-11 20:58:06,2022-08-12
-74.902364,40.164285,TRUE,"PA","Penndel","749 E Lincoln Hwy",2022-08-11 20:57:06,2022-08-12
-74.881372,40.125193,FALSE,"PA","Bristol","3120 Veterans Hwy",2022-08-11 20:58:06,2022-08-12
-75.092739,41.055671,FALSE,"PA","East Stroudsburg","9 Sellerville Dr",2022-08-11 20:58:06,2022-08-12
-74.869434,40.1005,FALSE,"PA","Bristol","75 Bristol Commerce Park",2022-08-11 20:57:06,2022-08-12
-75.209282,40.687109,FALSE,"PA","Easton","S 3rd St & Riverside Dr",2022-08-11 20:58:06,2022-08-12
-75.011158,40.213555,FALSE,"PA","Richboro","950 2nd Str Pike",2022-08-11 20:57:06,2022-08-12
-75.219599,40.712415,FALSE,"PA","Easton","350 Town Center Boulevard",2022-08-11 20:57:06,2022-08-12
-75.145927,40.386278,FALSE,"PA","Pipersville","5857 Easton Road",2022-08-11 20:58:06,2022-08-12
-74.965131,40.136816,FALSE,"PA","Trevose","3560 Horizon Boulevard",2022-08-11 20:58:06,2022-08-12
-75.189334,40.988453,FALSE,"PA","Stroudsburg","330 Main St",2022-08-11 20:58:06,2022-08-12
-75.08595,40.260093,FALSE,"PA","Jamison","2395 York Rd",2022-08-11 20:57:06,2022-08-12
-75.130079,40.322711,FALSE,"PA","Doylestown","561 N Main St",2022-08-11 20:57:06,2022-08-12
-74.99347,40.146082,FALSE,"PA","Feasterville","334 E Street Rd",2022-08-11 20:58:06,2022-08-12
-74.94585,40.09647,FALSE,"PA","Bensalem","1930 St Rd",2022-08-11 20:57:06,2022-08-12
-75.252759,40.688549,FALSE,"PA","Easton","2553 Nazareth Rd",2022-08-11 20:58:06,2022-08-12
-74.965013,40.088491,FALSE,"PA","Philadelphia","501 Franklin Mill Cir",2022-08-11 20:57:06,2022-08-12
-75.224836,40.986749,FALSE,"PA","Stroudsburg","1171 N 9th St",2022-08-11 20:58:06,2022-08-12
-75.046737,40.166557,TRUE,"PA","Southampton","338 2nd St Pike",2022-08-11 20:57:06,2022-08-12
-75.285281,40.715486,FALSE,"PA","Easton","3708 Easton Nazareth Hwy",2022-08-11 20:58:06,2022-08-12
-74.966169,40.07164,FALSE,"PA","Bensalem","1240 Bristol Pike",2022-08-11 20:57:06,2022-08-12
-75.297208,40.836097,FALSE,"PA","Wind Gap","1036 S Broadway",2022-08-11 20:58:06,2022-08-12
-75.029522,40.102193,TRUE,"PA","Philadelphia","9970 Bustleton Ave",2022-08-11 20:57:06,2022-08-12
-75.18908,40.296413,TRUE,"PA","Doylestown","800 Town Center",2022-08-08 01:00:06,2022-08-08
-75.105904,40.179979,FALSE,"PA","Hatboro","121 N York Rd",2022-08-11 20:57:06,2022-08-12
-75.138972,40.218303,FALSE,"PA","Warrington","250 Metro Drive",2022-08-11 20:58:06,2022-08-12
-75.128715,40.175038,FALSE,"PA","Horsham","Pa Rte 611 And Pine Ave",2022-08-11 20:58:06,2022-08-12
-75.009526,40.050367,FALSE,"PA","Philadelphia","8901 Franford Ave",2022-08-11 20:58:06,2022-08-12
-75.344847,40.67552,FALSE,"PA","Bethlehem","3925 Nazareth Pike",2022-08-11 20:58:06,2022-08-12
-75.345975,40.643841,FALSE,"PA","Bethlehem","2610 Easton Ave",2022-08-11 20:58:06,2022-08-12
-75.05476,41.356154,FALSE,"PA","Hawley","603 Rt 739",2022-08-11 20:58:06,2022-08-12
-75.340139,40.5673,FALSE,"PA","Hellertown","14 S Main St",2022-08-11 20:58:06,2022-08-12
-75.115847,40.131169,FALSE,"PA","Abington","1663 Old York Rd",2022-08-11 20:58:06,2022-08-12
-75.226722,40.265876,FALSE,"PA","Chalfont","4272 County Line Rd",2022-08-11 20:58:06,2022-08-12
-75.060584,40.056397,FALSE,"PA","Philadelphia","7613 Castor Avenue",2022-08-11 20:57:06,2022-08-12
-75.084368,40.074102,FALSE,"PA","Philadelphia","7901 Oxford Ave",2022-08-11 20:58:06,2022-08-12
-75.053345,40.044473,FALSE,"PA","Philadelphia","2801 Cottman Ave",2022-08-11 20:58:06,2022-08-12
-75.297739,40.364256,FALSE,"PA","Perkasie","503 Constitution Ave",2022-08-11 20:58:06,2022-08-12
-75.265629,40.288169,FALSE,"PA","Hatfield","1511 Bethlehem Pike",2022-08-11 20:58:06,2022-08-12
-75.16762,40.144085,FALSE,"PA","Dresher","1650 Limekiln Pike",2022-08-11 20:58:06,2022-08-12
-75.385566,40.609145,FALSE,"PA","Bethlehem","442 Wyandotte St",2022-08-11 20:58:06,2022-08-12
-75.050729,40.022321,FALSE,"PA","Philadelphia","6470 Torresdale Avenue",2022-08-11 20:58:06,2022-08-12
-75.224248,40.209598,FALSE,"PA","North Wales","1470 Bethlehem Pike",2022-08-11 20:57:06,2022-08-12
-75.359409,40.444085,FALSE,"PA","Quakertown","2 N Westend Blvd",2022-08-11 20:58:06,2022-08-12
-75.308881,40.3163,FALSE,"PA","Souderton","727 Rt 113",2022-08-11 20:57:06,2022-08-12
-75.259117,40.227288,FALSE,"PA","North Wales","1200 Welsh Rd",2022-08-11 20:58:06,2022-08-12
-75.399965,40.922096,FALSE,"PA","Brodheadsville","Rt 209 & 115",2022-08-11 20:58:06,2022-08-12
-75.10653,40.032346,TRUE,"PA","Philadelphia","710 Adams Ave",2022-08-11 20:58:06,2022-08-12
-75.157665,40.072964,FALSE,"PA","Philadelphia","7911-17 Ogontz Ave",2022-08-11 20:58:06,2022-08-12
-75.435443,40.625051,FALSE,"PA","Allentown","1321 Union Blvd",2022-08-11 20:58:06,2022-08-12
-75.094575,40.006304,FALSE,"PA","Philadelphia","1801 Torresdale Ave",2022-08-11 20:58:06,2022-08-12
-75.317924,40.263725,FALSE,"PA","Lansdale","2333 Welsh Road",2022-08-11 20:58:06,2022-08-12
-75.157837,40.055862,FALSE,"PA","Philadelphia","2211 Stenton Ave",2022-08-11 20:58:06,2022-08-12
-75.093707,39.99463,FALSE,"PA","Philadelphia","3725 Aramingo Ave",2022-08-11 20:58:06,2022-08-12
-75.213295,40.110584,FALSE,"PA","Flourtown","1890 Bethleham Pike",2022-08-11 20:58:06,2022-08-12
-75.118959,40.012382,FALSE,"PA","Philadelphia","4163 Whitaker Ave",2022-08-11 20:58:06,2022-08-12
-75.31334,40.229786,FALSE,"PA","Lansdale","1551 S Valley Forge Rd",2022-08-11 20:58:06,2022-08-12
-75.41836,40.435242,FALSE,"PA","Quakertown","1900 John Fries Highway",2022-08-11 20:58:06,2022-08-12
-75.460678,40.585989,FALSE,"PA","Allentown","1432 S 4th St",2022-08-11 20:58:06,2022-08-12
-75.372718,41.12259,FALSE,"PA","Mt. Pocono","Rt. 940 & Oak Street Shopping Center",2022-08-11 20:58:06,2022-08-12
-75.149889,40.01737,FALSE,"PA","Philadelphia","4200 N Broad St",2022-08-11 20:58:06,2022-08-12
-75.174316,40.036686,FALSE,"PA","Philadelphia","29 E Chelten Ave",2022-08-11 20:58:06,2022-08-12
-75.135355,39.991105,FALSE,"PA","Philadelphia","2nd   Lehigh Ave",2022-08-11 20:58:06,2022-08-12
-75.487288,40.645066,FALSE,"PA","Whitehall","2601 Mcarthur Rd",2022-08-11 20:58:06,2022-08-12
-75.487068,40.636127,FALSE,"PA","Whitehall","2137 Mc Arthur Rd",2022-08-11 20:58:06,2022-08-12
-75.15262,40.001157,FALSE,"PA","Philadelphia","3137 N Broad St",2022-08-11 20:58:06,2022-08-12
-75.491614,40.60734,FALSE,"PA","Allentown","1414 Tilghman St",2022-08-11 20:58:06,2022-08-12
-75.376321,40.266803,FALSE,"PA","Harleysville","274 W Main St",2022-08-11 20:58:06,2022-08-12
-75.487806,40.559727,FALSE,"PA","Allentown","3020 Lehigh St",2022-08-11 20:58:06,2022-08-12
-75.501268,40.650812,FALSE,"PA","Whitehall","2998 Macarthur Road",2022-08-11 20:58:06,2022-08-12
-75.166119,39.995854,FALSE,"PA","Philadelphia","2101 W Lehigh",2022-08-11 20:58:06,2022-08-12
-75.135705,39.968354,FALSE,"PA","Philadelphia","22 W Girard Ave",2022-08-11 20:58:06,2022-08-12
-75.155994,39.985228,FALSE,"PA","Philadelphia","2109 N Broad St",2022-08-11 20:58:06,2022-08-12
-75.179781,40.004814,FALSE,"PA","Philadelphia","3100 W Allegheny Ave",2022-08-11 20:58:06,2022-08-12
-75.238855,40.063817,FALSE,"PA","Philadelphia","8500 Henry Ave",2022-08-11 20:58:06,2022-08-12
-75.311532,40.143917,FALSE,"PA","East Norriton","2931 Dekalb Pike",2022-08-11 20:58:06,2022-08-12
-75.158826,39.972099,FALSE,"PA","Philadelphia","1201 N Broad St",2022-08-11 20:58:06,2022-08-12
-75.506629,40.529028,FALSE,"PA","Emmaus","1101 Chestnut St",2022-08-11 20:58:06,2022-08-12
-75.29003,40.094447,FALSE,"PA","Conshohocken","209 213 Ridge Pike",2022-08-11 20:58:06,2022-08-12
-75.527624,40.598487,FALSE,"PA","Allentown","721 Cedar Crest Blvd",2022-08-11 20:58:06,2022-08-12
-75.347046,40.152293,FALSE,"PA","East Norristown","689 W Germantown Pike",2022-08-11 20:58:06,2022-08-12
-75.532775,40.574503,FALSE,"PA","Allentown","3860 Hamilton Blvd",2022-08-11 20:58:06,2022-08-12
-75.141272,39.926222,FALSE,"PA","Philadelphia","1675 S Christopher Columbus Blvd",2022-08-11 20:58:06,2022-08-12
-75.142546,39.923923,FALSE,"PA","Philadelphia","1601 Christopher Columbus Blvd",2022-08-11 20:58:06,2022-08-12
-75.2294,39.999466,FALSE,"PA","Philadelphia","5020 City Line Ave",2022-08-11 20:58:06,2022-08-12
-75.166777,39.939428,FALSE,"PA","Philadelphia","914 S Broad St",2022-08-11 20:58:06,2022-08-12
-75.501937,40.39307,FALSE,"PA","Pennsburg","502 Pottstown Ave",2022-08-11 20:58:06,2022-08-12
-75.224318,39.979957,FALSE,"PA","Philadelphia","52nd   Jefferson",2022-08-11 20:59:06,2022-08-12
-75.348007,40.116429,FALSE,"PA","Norristown","273/227 W Main",2022-08-11 20:58:06,2022-08-12
-75.151145,39.913805,FALSE,"PA","Philadelphia","120 W Oregon",2022-08-11 20:58:06,2022-08-12
-75.311567,40.067948,FALSE,"PA","West Conshohocken","114 Moorehead Ave",2022-08-11 20:58:06,2022-08-12
-75.202337,39.954342,FALSE,"PA","Philadelphia","3935 Walnut St",2022-08-11 20:59:06,2022-08-12
-75.191225,39.939465,FALSE,"PA","Philadelphia","29 & Grays Ferry Ave",2022-08-11 20:58:06,2022-08-12
-75.232234,39.965999,FALSE,"PA","Philadelphia","5601 Vine St",2022-08-11 20:58:06,2022-08-12
-75.225038,39.95814,FALSE,"PA","Philadelphia","101-1423 S 52nd St",2022-08-11 20:58:06,2022-08-12
-75.187246,39.919394,FALSE,"PA","Philadelphia","24th & Oregon St",2022-08-11 20:58:06,2022-08-12
-75.56977,40.520238,FALSE,"PA","Macungie","6479 Village Ln",2022-08-11 20:58:06,2022-08-12
-75.594435,40.757416,FALSE,"PA","Walnutport","473 Main St",2022-08-11 20:58:06,2022-08-12
-75.365097,40.095668,FALSE,"PA","King Of Prussia","151 North Henderson Road",2022-08-11 20:58:06,2022-08-12
-75.293123,40.009359,FALSE,"PA","Ardmore","111 Lancaster Pike",2022-08-11 20:58:06,2022-08-12
-75.268621,39.980081,FALSE,"PA","Philadelphia","7500 City Avenue",2022-08-11 20:58:06,2022-08-12
-75.405195,40.128063,FALSE,"PA","Audubon","635 S Trooper Rd",2022-08-11 20:58:06,2022-08-12
-75.593937,40.55127,FALSE,"PA","Trexlertown","6896 Hamilton Blvd",2022-08-11 20:59:06,2022-08-12
-75.227616,39.930819,FALSE,"PA","Philadelphia","5945 Woodland Ave",2022-08-11 20:58:06,2022-08-12
-75.257655,39.957409,FALSE,"PA","Upper Darby","133 S 69th St",2022-08-11 20:58:06,2022-08-12
-75.328408,40.026812,FALSE,"PA","Bryn Mawr","1257 Lancaster Ave",2022-08-11 20:58:06,2022-08-12
-75.451145,40.185038,FALSE,"PA","Collegeville","222 E Main St",2022-08-11 20:58:06,2022-08-12
-75.614351,40.678216,FALSE,"PA","Schnecksville","5060 State Hwy 873",2022-08-11 20:58:06,2022-08-12
-75.264559,39.940011,FALSE,"PA","Lansdowne","201 E Baltimore Ave",2022-08-11 20:58:06,2022-08-12
-75.287515,39.959791,FALSE,"PA","Upper Darby","1891 S State Rd",2022-08-11 20:58:06,2022-08-12
-75.239145,39.903164,FALSE,"PA","Philadelphia","7700 Island Ave",2022-08-11 20:58:06,2022-08-12
-75.501968,40.217226,FALSE,"PA","Limerick","32 Ridge Pike",2022-08-11 20:58:06,2022-08-12
-75.318433,39.972507,FALSE,"PA","Havertown","1232 Westchester Pike",2022-08-11 20:58:06,2022-08-12
-75.26436,39.920196,FALSE,"PA","Darby","101 S Mcdade Blvd",2022-08-11 20:58:06,2022-08-12
-75.225179,41.553394,FALSE,"PA","Honesdale","1187 Texas Palmyra Highway",2022-08-11 20:58:06,2022-08-12
-75.321084,39.955992,FALSE,"PA","Drexel Hill","5008 Township Line Rd",2022-08-11 20:59:06,2022-08-12
-75.361434,39.982434,FALSE,"PA","Broomall","2601 W Chester Pike",2022-08-11 20:58:06,2022-08-12
-75.306877,39.926325,FALSE,"PA","Clifton Heights","531 Baltimore Pike",2022-08-11 20:59:06,2022-08-12
-75.44271,40.070722,FALSE,"PA","Berwyn","260 W Swedeford Rd",2022-08-11 20:58:06,2022-08-12
-75.417505,41.404432,FALSE,"PA","Hamlin","Rte 590 Village Center At Hamlin",2022-08-11 20:58:06,2022-08-12
-75.53362,40.194585,FALSE,"PA","Royersford","308 N Lewis Rd",2022-08-11 20:59:06,2022-08-12
-75.30403,39.900275,FALSE,"PA","Holmes","2711 Mac Dade Blvd",2022-08-11 20:58:06,2022-08-12
-75.619884,40.326546,FALSE,"PA","Gilbertsville","Rt 73/Philadelphia Ave",2022-08-11 20:59:06,2022-08-12
-75.306348,39.881886,FALSE,"PA","Prospect Park","Rt 420 & 13",2022-08-11 20:58:06,2022-08-12
-75.534345,40.132316,FALSE,"PA","Phoenixville","651 Nut Rd",2022-08-11 20:58:06,2022-08-12
-75.734335,40.814799,FALSE,"PA","Lehighton","1257 Blakeslee Blvd",2022-08-11 20:59:06,2022-08-12
-75.619695,40.242917,FALSE,"PA","Pottstown","1428 E High St",2022-08-11 20:58:06,2022-08-12
-75.344206,39.878701,FALSE,"PA","Woodlyn","1253 Mcdade Blvd",2022-08-11 20:58:06,2022-08-12
-75.341757,39.865832,FALSE,"PA","Eddystone","1576 Chester Pike",2022-08-11 20:58:06,2022-08-12
-75.702194,41.071491,FALSE,"PA","White Haven","Rt 940 & I 80",2022-08-11 20:58:06,2022-08-12
-75.65977,40.252745,FALSE,"PA","Pottstown","189 Shoemaker Rd",2022-08-11 20:58:06,2022-08-12
-75.529528,40.042656,FALSE,"PA","Frazer","84 Lancaster Ave",2022-08-11 20:58:06,2022-08-12
-75.389796,39.872876,TRUE,"PA","Brookhaven","4206 Edgemont Ave",2022-08-11 20:58:06,2022-08-12
-75.433866,39.914305,FALSE,"PA","Lima","1123 West Baltimore Pike",2022-08-11 20:58:06,2022-08-12
-75.818688,40.86115,FALSE,"PA","Nesquehoning","180 Market St",2022-08-11 20:58:06,2022-08-12
-75.728384,40.259218,FALSE,"PA","Douglassville","1188 W Ben Franklin Hwy",2022-08-11 20:58:06,2022-08-12
-75.424938,39.834319,FALSE,"PA","Linwood","2326 Market St",2022-08-11 20:58:06,2022-08-12
-75.449744,39.849649,FALSE,"PA","Boothwyn","518 Conchester Hwy",2022-08-11 20:59:06,2022-08-12
-75.632916,40.033592,FALSE,"PA","Exton","Rt 100/Swedsford Rd",2022-08-11 20:58:06,2022-08-12
-75.62023,41.435485,FALSE,"PA","Dunmore","1201 Harry P. O Neill",2022-08-11 20:58:06,2022-08-12
-75.51423,41.566016,FALSE,"PA","Carbondale","160 Brooklyn St",2022-08-11 20:59:06,2022-08-12
-75.595578,39.965278,FALSE,"PA","West Chester","701 E Gay St",2022-08-11 20:58:06,2022-08-12
-75.580831,41.502255,FALSE,"PA","Eynon","525 Scranton Carbondale Hwy",2022-08-11 20:59:06,2022-08-12
-75.662234,40.049657,FALSE,"PA","Exton","106 Eagleview Blvd",2022-08-11 20:59:06,2022-08-12
-75.650567,41.421243,FALSE,"PA","Scranton","1236 Wyoming Ave",2022-08-11 20:58:06,2022-08-12
-75.673317,41.399742,FALSE,"PA","Scranton","900 S Washington Ave",2022-08-11 20:58:06,2022-08-12
-75.590869,39.942395,FALSE,"PA","West Chester","927 S High St",2022-08-11 20:59:06,2022-08-12
-75.545939,39.879156,FALSE,"PA","Concordville","Rt 202 & 1",2022-08-11 20:59:06,2022-08-12
-75.637589,41.471035,FALSE,"PA","Dickson City","1511 Scranton Carbondale Hwy",2022-08-11 20:59:06,2022-08-12
-75.669671,41.44534,FALSE,"PA","Scranton","1739 N Keyser Ave",2022-08-11 20:59:06,2022-08-12
-75.764104,41.307042,FALSE,"PA","Pittston","306 Rt 315",2022-08-11 20:59:06,2022-08-12
-75.847656,40.298659,FALSE,"PA","Reading","5370 Perkiomen Ave",2022-08-11 20:59:06,2022-08-12
-75.737854,41.368547,FALSE,"PA","Old Forge","411 S Main St",2022-08-11 20:59:06,2022-08-12
-75.700651,40.007621,FALSE,"PA","Downingtown","227 E Lincoln Hwy",2022-08-11 20:58:06,2022-08-12
-75.881014,40.327341,FALSE,"PA","Saint Lawrence","2730 Perkiomen Ave",2022-08-11 20:59:06,2022-08-12
-75.921919,40.416003,FALSE,"PA","Temple","5372 Allentown Pike",2022-08-11 20:58:06,2022-08-12
-75.844593,41.250828,FALSE,"PA","Wilkes Barre","744 Kidder St",2022-08-11 20:59:06,2022-08-12
-75.695099,41.486469,FALSE,"PA","Clarks Summit","1127 Northern Blvd",2022-08-11 20:59:06,2022-08-12
-75.900468,41.143554,FALSE,"PA","Mountain Top","Rt 309 & Crestwood Dr",2022-08-11 20:59:06,2022-08-12
-75.92639,40.384911,FALSE,"PA","Reading","430 Elizabeth Ave",2022-08-11 20:59:06,2022-08-12
-75.919356,40.350678,FALSE,"PA","Reading","1001 N 9th Street",2022-08-11 20:58:06,2022-08-12
-75.981512,40.82351,FALSE,"PA","Tamaqua","Rt 54 & Rt 309",2022-08-11 20:59:06,2022-08-12
-75.953881,40.443088,FALSE,"PA","Leesport","5500 Pottsville Pike",2022-08-11 20:59:06,2022-08-12
-75.878647,41.224963,TRUE,"PA","Wilkes Barre","900 Wilkes Barre Township Blvd",2022-08-08 01:00:06,2022-08-08
-75.745329,39.995692,FALSE,"PA","Thorndale","3808 E Lincoln Hwy",2022-08-11 20:59:06,2022-08-12
-75.867621,41.261269,FALSE,"PA","Plains","River St & Rt309",2022-08-11 20:59:06,2022-08-12
-75.881075,41.241025,FALSE,"PA","Wilkes Barre","150 East Hampton",2022-08-11 20:59:06,2022-08-12
-75.854054,41.301328,FALSE,"PA","Wyoming","913 Wyoming Ave",2022-08-11 20:59:06,2022-08-12
-75.979536,40.979787,FALSE,"PA","Hazleton","1145 N Church Street",2022-08-11 20:59:06,2022-08-12
-75.934301,40.320728,FALSE,"PA","Reading","400 Lancaster Ave",2022-08-11 20:59:06,2022-08-12
-76.005556,40.562553,FALSE,"PA","Hamburg","80 Wilderness Drive",2022-08-11 20:59:06,2022-08-12
-75.954262,40.336586,FALSE,"PA","Wyomissing","8th & Hill Ave",2022-08-11 20:59:06,2022-08-12
-75.901574,41.258652,FALSE,"PA","Edwardsville","80 S Wyoming Ave",2022-08-11 20:59:06,2022-08-12
-75.921241,41.231926,FALSE,"PA","Wilkes Barre","746 San Souci Hwy",2022-08-11 20:59:06,2022-08-12
-75.89664,41.282393,FALSE,"PA","Luzerne","500 Union Street Luzerne",2022-08-11 20:59:06,2022-08-12
-75.891362,40.158108,FALSE,"PA","Morgantown","6176 Morgantown Rd",2022-08-11 20:59:06,2022-08-12
-75.789567,39.988543,FALSE,"PA","Coatesville","1820 E Lincoln Hwy",2022-08-11 20:59:06,2022-08-12
-76.012507,40.986516,FALSE,"PA","Hazle Township","761 Airport Rd",2022-08-11 20:59:06,2022-08-12
-75.982787,40.356142,FALSE,"PA","Wyomissing","2725 N Meridian Blvd",2022-08-11 20:59:06,2022-08-12
-76.017684,40.981301,FALSE,"PA","Hazle Township","571 Susquehanna Blvd",2022-08-11 20:59:06,2022-08-12
-76.016574,40.325001,FALSE,"PA","Sinking Spring","3710 Penn Ave",2022-08-11 20:59:06,2022-08-12
-75.729778,39.842364,FALSE,"PA","Kennett Square","399 Scarlet Rd New Garden Shopping Cntr",2022-08-11 20:59:06,2022-08-12
-75.942482,41.322314,FALSE,"PA","Shavertown","Rt 309 Franklin Street",2022-08-11 20:59:06,2022-08-12
-76.111,40.517508,FALSE,"PA","Shartlesville","Motel Drive & Rt 4011",2022-08-11 20:59:06,2022-08-12
-76.157296,40.640927,TRUE,"PA","Schuylkill Haven","981 E Main St",2022-08-11 20:59:06,2022-08-12
-75.933937,39.983139,FALSE,"PA","Parkesburg","900 Commons Drive",2022-08-11 20:59:06,2022-08-12
-76.186929,40.704293,FALSE,"PA","Pottsville","720 N Claude A Lord Blvd",2022-08-11 20:59:06,2022-08-12
-75.682412,41.822565,FALSE,"PA","New Milford","I 81 & Sr 848",2022-08-11 20:59:06,2022-08-12
-75.872795,39.823582,FALSE,"PA","Jennersville","Rt 796 & Rt 1",2022-08-11 20:59:06,2022-08-12
-76.222504,40.770304,TRUE,"PA","Frackville","960 Schuylkill Mall",2022-08-11 20:59:06,2022-08-12
-75.959456,41.542176,FALSE,"PA","Tunkhannock","161 W Tioga St.",2022-08-11 20:59:06,2022-08-12
-76.190087,40.369963,FALSE,"PA","Womelsdorf","3400 Conrad Weiser Pky",2022-08-11 20:59:06,2022-08-12
-76.020426,39.991651,FALSE,"PA","Gap","5328 Lincon Hwy",2022-08-11 20:59:06,2022-08-12
-76.116924,40.092685,FALSE,"PA","New Holland","828 W Main St",2022-08-11 20:59:06,2022-08-12
-76.156964,40.165105,FALSE,"PA","Ephrata","854 Emain Street",2022-08-11 20:59:06,2022-08-12
-76.184955,40.187572,FALSE,"PA","Ephrata","140 N Reading",2022-08-11 20:59:06,2022-08-12
-76.274064,41.047317,FALSE,"PA","Berwick","10 Briar Creek Plaza",2022-08-11 20:59:06,2022-08-12
-75.976494,39.796094,FALSE,"PA","Oxford","400 Commons Drived",2022-08-11 20:59:06,2022-08-12
-76.317194,41.026499,FALSE,"PA","Mifflinville","Route 339 And I 80",2022-08-11 20:59:06,2022-08-12
-76.310991,40.37812,FALSE,"PA","Myerstown","295 W Lincoln",2022-08-11 20:59:06,2022-08-12
-75.865075,41.835971,FALSE,"PA","Montrose","494 Grow Ave",2022-08-11 20:59:06,2022-08-12
-75.740725,41.964809,FALSE,"PA","Halstead","Rt 11 & I 81",2022-08-11 20:59:06,2022-08-12
-76.234969,40.030381,FALSE,"PA","Lancaster","2090 Lincoln Highway East",2022-08-08 01:00:06,2022-08-08
-76.255586,40.051827,FALSE,"PA","Lancaster","1880 Hempstead Rd",2022-08-08 01:00:06,2022-08-08
-76.305578,40.130241,FALSE,"PA","Lititz","990 Lititz Pike",2022-08-11 20:59:06,2022-08-12
-76.42629,40.534483,FALSE,"PA","Pine Grove","427 Sueberg Road",2022-08-11 20:59:06,2022-08-12
-76.397716,40.343079,FALSE,"PA","Lebanon","757 E Cumberland St",2022-08-11 20:59:06,2022-08-12
-76.296029,40.076214,FALSE,"PA","Lancaster","1829 Oregon Pike",2022-08-11 20:59:06,2022-08-12
-76.436487,41.0051,FALSE,"PA","Bloomsburg","945 New Berwick Hwy",2022-08-11 20:59:06,2022-08-12
-76.293191,40.048162,FALSE,"PA","Lancaster","575 N Franklin St",2022-08-11 20:59:06,2022-08-12
-76.308628,40.037244,FALSE,"PA","Lancaster","210 W King St",2022-08-11 20:59:06,2022-08-12
-76.432817,40.350011,FALSE,"PA","Lebanon","1202 W Maple St",2022-08-11 20:59:06,2022-08-12
-76.284973,39.992521,FALSE,"PA","Lancaster","301 Willow Valley Square",2022-08-11 20:59:06,2022-08-12
-76.424998,40.313299,FALSE,"PA","Lebanon","1725 Quentin Rd",2022-08-11 20:59:06,2022-08-12
-76.333503,40.070847,FALSE,"PA","Lancaster","1434 Manheim Pike",2022-08-11 20:59:06,2022-08-12
-76.380455,40.149239,FALSE,"PA","Manheim","711 Lancaster Rd",2022-08-11 20:59:06,2022-08-12
-76.326144,40.027261,FALSE,"PA","Lancaster","1295 Millersville Pike",2022-08-11 20:59:06,2022-08-12
-76.485313,41.008674,FALSE,"PA","Bloomsburg","100 Lunger Drive  Wm  1794",2022-08-11 20:59:06,2022-08-12
-76.351686,40.038473,FALSE,"PA","Lancaster","1755 Columbia Ave",2022-08-11 20:59:06,2022-08-12
-76.538228,40.790326,FALSE,"PA","Shamokin","Sthy 61",2022-08-11 21:00:06,2022-08-12
-76.484491,40.33614,FALSE,"PA","Cleona","493 W Pen Ave",2022-08-11 21:00:06,2022-08-12
-76.515324,40.449619,FALSE,"PA","Jonestown","Rt 72 & I-81",2022-08-11 21:00:06,2022-08-12
-76.549965,40.860479,FALSE,"PA","Elysburg","1 West Valley Avenue",2022-08-11 21:00:06,2022-08-12
-76.394325,40.050879,FALSE,"PA","Lancaster","311 Centerville Rd",2022-08-11 21:00:06,2022-08-12
-76.450738,40.112805,FALSE,"PA","Manheim","2000 Strickler Road",2022-08-11 21:00:06,2022-08-12
-76.583017,40.314099,FALSE,"PA","Palmyra","901 E Main St",2022-08-11 21:00:06,2022-08-12
-76.47388,40.031273,FALSE,"PA","Columbia","1788 Columbia Ave",2022-08-11 21:00:06,2022-08-12
-76.64012,40.993624,FALSE,"PA","Danville","132 Old Valley School Road",2022-08-11 21:00:06,2022-08-12
-76.589438,40.139354,FALSE,"PA","Elizabethtown","1284 S Market St",2022-08-11 21:00:06,2022-08-12
-76.689691,40.26776,FALSE,"PA","Hummelstown","Rt 39 At Rt 322",2022-08-11 21:00:06,2022-08-12
-76.725393,40.352618,FALSE,"PA","Harrisburg","7845 Linglestown Rd",2022-08-11 21:00:06,2022-08-12
-76.422885,41.768905,FALSE,"PA","Towanda","Bradford Town Center",2022-08-11 21:00:06,2022-08-12
-76.788959,40.559013,FALSE,"PA","Elizabethville","4660 Rt 209",2022-08-11 21:00:06,2022-08-12
-76.720511,40.225946,FALSE,"PA","Middletown","3555 Vine Street",2022-08-11 21:00:06,2022-08-12
-76.73465,41.230081,FALSE,"PA","Hughesville","755 State Hwy 405",2022-08-11 21:00:06,2022-08-12
-76.636715,39.992722,FALSE,"PA","York","4015 E Market St",2022-08-11 21:00:06,2022-08-12
-76.827094,40.841678,FALSE,"PA","Shamokin Dam","2584 N Susquehanna Trail",2022-08-11 21:00:06,2022-08-12
-76.772767,40.261676,FALSE,"PA","Harrisburg","6535 Grayson Rd  Wm  1591",2022-08-11 21:00:06,2022-08-12
-76.630864,39.915653,FALSE,"PA","Red Lion","655 Lombard St",2022-08-11 21:00:06,2022-08-12
-76.793509,40.320075,FALSE,"PA","Harrisburg","5590 Allentown Blvd",2022-08-11 21:00:06,2022-08-12
-76.622358,39.896932,FALSE,"PA","Red Lion","897 W Broadway St",2022-08-11 21:00:06,2022-08-12
-76.783967,40.26399,FALSE,"PA","Harrisburg","6004 Derry St",2022-08-11 21:00:06,2022-08-12
-76.770243,40.201625,FALSE,"PA","Middletown","2270 W Harrisburg Pike",2022-08-11 21:00:06,2022-08-12
-76.681949,39.978156,FALSE,"PA","York","380 Memory Ln",2022-08-11 21:00:06,2022-08-12
-76.723279,40.046919,FALSE,"PA","Manchester","4245 N George St Extd",2022-08-11 21:00:06,2022-08-12
-76.814717,40.300867,FALSE,"PA","Harrisburg","4605 Jonestown Rd",2022-08-11 21:00:06,2022-08-12
-76.853699,41.019422,FALSE,"PA","Milton","35 Bound Ave",2022-08-11 21:00:06,2022-08-12
-76.805128,40.240526,FALSE,"PA","Harrisburg","850 Eisenhower Blvd",2022-08-11 21:00:06,2022-08-12
-76.821769,40.278009,FALSE,"PA","Harrisburg","1043 Briarsdale Rd",2022-08-11 21:00:06,2022-08-12
-76.692637,39.937436,FALSE,"PA","York","2061 South Queen Street",2022-08-11 21:00:06,2022-08-12
-76.879004,40.991577,FALSE,"PA","Lewisburg","122 Ajk Blvd",2022-08-11 21:00:06,2022-08-12
-76.885258,40.980375,FALSE,"PA","Lewisburg","7379 Westbranch Hwy",2022-08-11 21:00:06,2022-08-12
-76.829763,41.243982,FALSE,"PA","Muncy","Parcel F / Lycoming Mall",2022-08-11 21:00:06,2022-08-12
-76.838712,40.255521,FALSE,"PA","Harrisburg","2929 Paxton St",2022-08-11 21:00:06,2022-08-12
-76.844257,40.271467,FALSE,"PA","Harrisburg","101 S 25th St",2022-08-11 21:00:06,2022-08-12
-76.736592,39.983698,FALSE,"PA","York","60 Arsenal Rd",2022-08-11 21:00:06,2022-08-12
-76.726888,39.959895,FALSE,"PA","York","142 S George St",2022-08-11 21:00:06,2022-08-12
-76.70441,39.910693,FALSE,"PA","York","Leader Heights Us I-83",2022-08-11 21:00:06,2022-08-12
-76.819676,40.153867,FALSE,"PA","Etters","56 Robinhood Dr",2022-08-11 21:00:06,2022-08-12
-76.925804,40.454811,FALSE,"PA","Halifax","3761 Peters Mountain Rd",2022-08-11 21:00:06,2022-08-12
-76.898763,40.325063,FALSE,"PA","Harrisburg","4403 N Front St",2022-08-11 21:00:06,2022-08-12
-76.892619,40.292099,FALSE,"PA","Harrisburg","720 Division St",2022-08-11 21:00:06,2022-08-12
-76.772715,39.968383,TRUE,"PA","York","Rt 30   74th  W M  2205",2022-08-11 21:00:06,2022-08-12
-76.77593,39.966056,FALSE,"PA","Shiloh","York Crossing Dr",2022-08-11 21:00:06,2022-08-12
-76.670352,39.770639,FALSE,"PA","Shrewsbury","534 Shrewsbury Commons Ave",2022-08-11 21:00:06,2022-08-12
-76.878904,40.212456,FALSE,"PA","New Cumberland","101 Limekiln Rd",2022-08-11 21:00:06,2022-08-12
-76.891527,40.230351,FALSE,"PA","Camp Hill","Rte 83 / Carlisle Rd",2022-08-11 21:00:06,2022-08-12
-76.928025,40.300125,FALSE,"PA","Enola","425 N Enola Road",2022-08-11 21:00:06,2022-08-12
-76.914481,40.250511,FALSE,"PA","Lemoyne","1 Lemoyne Dr",2022-08-11 21:00:06,2022-08-12
-76.822231,39.983901,FALSE,"PA","Dover","3141 Carlisle Rd",2022-08-11 21:00:06,2022-08-12
-76.530016,41.994183,FALSE,"PA","Sayre","461 N Keystone Avenue",2022-08-11 21:00:06,2022-08-12
-76.953239,40.231358,FALSE,"PA","Camp Hill","4230 Trindle Rd",2022-08-11 21:00:06,2022-08-12
-76.970059,41.249746,FALSE,"PA","Williamsport","1730 E 3rd St",2022-08-11 21:00:06,2022-08-12
-77.035953,40.921469,FALSE,"PA","Mifflinburg","25 E Chestnut St",2022-08-11 21:00:06,2022-08-12
-76.961301,40.211265,FALSE,"PA","Mechanicsburg","1014 Wesley Dr",2022-08-11 21:00:06,2022-08-12
-76.987102,41.227005,FALSE,"PA","South Williamsport","180 Montgomery Rd",2022-08-11 21:00:06,2022-08-12
-76.987064,40.240814,TRUE,"PA","Mechanicsburg","5550 Carlisle Pike",2022-08-11 21:00:06,2022-08-12
-76.985402,40.176157,TRUE,"PA","Mechanicsburg","2112 Bumble Bee Hollow Road",2022-08-11 21:00:06,2022-08-12
-77.023376,40.247998,FALSE,"PA","Mechanicsburg","6520 Carlisle Pike",2022-08-11 21:00:06,2022-08-12
-77.030012,40.248773,FALSE,"PA","Mechanicsburg","Rt 114 & Shadow Oaks Dr",2022-08-11 21:01:06,2022-08-12
-76.78055,41.789396,FALSE,"PA","Troy","491 Elmira St",2022-08-11 21:00:06,2022-08-12
-77.043196,41.256062,FALSE,"PA","Williamsport","1940 Lycoming Creek Rd",2022-08-11 21:01:06,2022-08-12
-77.018457,40.131475,FALSE,"PA","Dillsburg","898 N Us Hwy 15",2022-08-11 21:01:06,2022-08-12
-77.114059,40.492739,FALSE,"PA","Newport","Routes 322 & 34",2022-08-11 21:01:06,2022-08-12
-77.142506,40.232627,FALSE,"PA","Carlisle","1176 Harrisburg Pike",2022-08-11 21:01:06,2022-08-12
-76.983317,39.825386,FALSE,"PA","Hanover","350 Eisenhower Dr",2022-08-11 21:00:06,2022-08-12
-76.959866,39.770847,FALSE,"PA","Hanover","1448 Baltimore St",2022-08-11 21:00:06,2022-08-12
-76.992822,39.815911,FALSE,"PA","Hanover","991 Carlisle St",2022-08-11 21:01:06,2022-08-12
-77.029691,39.870723,FALSE,"PA","New Oxford","6040 York Rd",2022-08-11 21:01:06,2022-08-12
-77.177442,40.200242,FALSE,"PA","Carlisle","608 E High",2022-08-11 21:00:06,2022-08-12
-77.194795,40.189634,FALSE,"PA","Carlisle","Nw Corner I-81 & S Hanover (W*M #2574)",2022-08-11 21:01:06,2022-08-12
-77.210809,40.185962,FALSE,"PA","Carlisle","905 Walnut Bottom Rd",2022-08-11 21:01:06,2022-08-12
-77.093772,39.749745,FALSE,"PA","Littlestown","430 N Queen St",2022-08-11 21:01:06,2022-08-12
-77.370187,40.581344,FALSE,"PA","Mifflintown","2 Parkside Ct",2022-08-11 21:01:06,2022-08-12
-77.078887,41.8104,FALSE,"PA","Mansfield","120 N Main St",2022-08-11 21:01:06,2022-08-12
-77.354147,41.153118,FALSE,"PA","Mc Elhattan","24 Mcdonald'S Lane",2022-08-11 21:02:06,2022-08-12
-77.206933,39.84164,FALSE,"PA","Gettysburg","1090 York Rd",2022-08-11 21:01:06,2022-08-12
-77.235913,39.818002,FALSE,"PA","Gettysburg","517 Steinwehr Ave",2022-08-11 21:01:06,2022-08-12
-77.453732,41.134896,FALSE,"PA","Lock Haven","423 Bellefonte Ave",2022-08-11 21:01:06,2022-08-12
-77.516961,41.033032,FALSE,"PA","Lamar","5820 Nittany Valley Dr",2022-08-11 21:01:06,2022-08-12
-77.296578,41.750745,FALSE,"PA","Wellsboro","12 Charleston St",2022-08-11 21:01:06,2022-08-12
-77.568334,40.615078,FALSE,"PA","Lewistown","121 Electric Ave",2022-08-11 21:01:06,2022-08-12
-77.613407,40.582395,FALSE,"PA","Lewistown","10170 Us Hwy 522 South",2022-08-11 21:01:06,2022-08-12
-77.514379,40.054245,FALSE,"PA","Shippensburg","333 E King St",2022-08-11 21:01:06,2022-08-12
-77.577523,39.96235,FALSE,"PA","Chambersburg","3347 Black Gap Rd",2022-08-11 21:01:06,2022-08-12
-77.766788,40.957659,FALSE,"PA","Milesburg","802 N Eagle Valley Rd",2022-08-11 21:02:06,2022-08-12
-77.632735,39.972258,FALSE,"PA","Chambersburg","2891 Philadelphia Ave",2022-08-11 21:02:06,2022-08-12
-77.638894,39.930338,FALSE,"PA","Chambersburg","1075 Lincoln Way E",2022-08-11 21:01:06,2022-08-12
-77.804328,40.83013,FALSE,"PA","State College","2821 E College Ave",2022-08-11 21:02:06,2022-08-12
-77.572499,39.752273,FALSE,"PA","Waynesboro","302 E Main St",2022-08-11 21:02:06,2022-08-12
-77.830027,40.785216,FALSE,"PA","State College","2167 S Atherton St",2022-08-11 21:02:06,2022-08-12
-77.855963,40.79853,TRUE,"PA","State College","442 E College Ave",2022-08-11 21:01:06,2022-08-12
-77.895766,40.808525,FALSE,"PA","State College","1615 N Atherton St",2022-08-11 21:02:06,2022-08-12
-77.878357,40.382384,FALSE,"PA","Mount Union","121 East Shirley Street",2022-08-11 21:02:06,2022-08-12
-77.711214,39.786693,FALSE,"PA","Greencastle","721 Buchanan Trl E",2022-08-11 21:02:06,2022-08-12
-78.017185,40.480238,FALSE,"PA","Huntingdon","9564 William Penn Highway",2022-08-11 21:02:06,2022-08-12
-77.906015,39.835453,FALSE,"PA","Mercersburg","11924 Buchanan Trl W",2022-08-11 21:02:06,2022-08-12
-77.990181,39.930017,FALSE,"PA","Mcconnellsburg","708 Lincoln Way E",2022-08-11 21:03:06,2022-08-12
-78.021671,41.77087,FALSE,"PA","Coudersport","104 S Main St",2022-08-11 21:03:06,2022-08-12
-78.232155,40.903246,FALSE,"PA","Philipsburg","Us Route 322 West",2022-08-11 21:03:06,2022-08-12
-78.239981,39.998588,FALSE,"PA","Breezewood","123 S Breezewood Rd",2022-08-11 21:02:06,2022-08-12
-78.398824,41.038028,FALSE,"PA","Clearfield","Rt 879 And I 80",2022-08-11 21:02:06,2022-08-12
-78.402081,40.535334,FALSE,"PA","Altoona","406 E 25th Ave",2022-08-11 21:03:06,2022-08-12
-78.401743,40.511585,FALSE,"PA","Altoona","1500 9th Avenue Station Mall",2022-08-11 21:02:06,2022-08-12
-78.402451,40.479696,FALSE,"PA","Altoona","407 E Plank Rd",2022-08-11 21:02:06,2022-08-12
-78.391411,40.335719,FALSE,"PA","Roaring Spring","908 E Main St",2022-08-11 21:02:06,2022-08-12
-78.41418,40.435656,FALSE,"PA","Duncansville","1265 Old Rt 220",2022-08-11 21:02:06,2022-08-12
-78.449548,41.010827,FALSE,"PA","Clearfield","1007 S 2nd Street",2022-08-11 21:02:06,2022-08-12
-78.446484,40.025341,FALSE,"PA","Everett","95 Bedford Square Plz",2022-08-08 01:00:06,2022-08-08
-78.595458,40.460006,FALSE,"PA","Cresson","9090 William Penn Hwy",2022-08-11 21:03:06,2022-08-12
-78.511477,40.053041,FALSE,"PA","Bedford","4363 Business 220",2022-08-11 21:03:06,2022-08-12
-78.560161,41.411149,FALSE,"PA","Saint Marys","Rte 255 Million Dollar Hwy",2022-08-11 21:03:06,2022-08-12
-78.671849,40.394666,FALSE,"PA","Portage","3592 Portage St",2022-08-11 21:03:06,2022-08-12
-78.737881,41.124748,FALSE,"PA","Du Bois","859 E Dubois Ave",2022-08-11 21:03:06,2022-08-12
-78.757869,40.468237,FALSE,"PA","Ebensburg","Route 22",2022-08-11 21:03:06,2022-08-12
-78.787119,41.2454,FALSE,"PA","Brockway","Route 219",2022-08-11 21:03:06,2022-08-12
-78.834841,40.297312,FALSE,"PA","Johnstown","530 Gallaria Dr",2022-08-11 21:03:06,2022-08-12
-78.645833,41.956293,FALSE,"PA","Bradford","141 Main St",2022-08-11 21:03:06,2022-08-12
-78.828574,40.229494,FALSE,"PA","Windber","298 21st St",2022-08-11 21:03:06,2022-08-12
-78.846054,40.276759,FALSE,"PA","Johnstown","150 Town Centre Drive",2022-08-11 21:03:06,2022-08-12
-78.861939,40.280377,FALSE,"PA","Johnstown","1129 Scalp Ave",2022-08-11 21:03:06,2022-08-12
-78.919325,40.320586,FALSE,"PA","Johnstown","219 Haynes Street",2022-08-11 21:03:06,2022-08-12
-78.97094,40.943874,FALSE,"PA","Punxsutawney","102 N Findley St",2022-08-11 21:03:06,2022-08-12
-78.955615,40.323326,FALSE,"PA","Johnstown","111 Plaza Dr",2022-08-11 21:03:06,2022-08-12
-79.098905,41.17392,FALSE,"PA","Brookville","249 Allegheny Blvd",2022-08-11 21:03:06,2022-08-12
-79.156281,40.615144,FALSE,"PA","Indiana","940 Wayne Ave",2022-08-11 21:03:06,2022-08-12
-79.170665,40.615709,FALSE,"PA","Indiana","1510 Oakland Ave",2022-08-11 21:03:06,2022-08-12
-79.074849,40.042096,FALSE,"PA","Somerset","1758 N Center Ave",2022-08-11 21:03:06,2022-08-12
-79.078694,40.016904,FALSE,"PA","Somerset","937 N Center St",2022-08-11 21:03:06,2022-08-12
-79.194721,40.600876,FALSE,"PA","Indiana","3100 Oakland Ave",2022-08-11 21:03:06,2022-08-12
-79.229589,40.443126,FALSE,"PA","Blairsville","10 Resort Plz",2022-08-11 21:03:06,2022-08-12
-79.145376,41.843008,FALSE,"PA","Warren","75 Market St",2022-08-11 21:03:06,2022-08-12
-79.381783,41.213489,FALSE,"PA","Clarion","707 Main Street",2022-08-11 21:03:06,2022-08-12
-79.395959,41.190456,FALSE,"PA","Clarion","R R 3 Box 182a Perkins Road",2022-08-11 21:03:06,2022-08-12
-79.371665,40.307535,FALSE,"PA","Latrobe","2014 Lincoln Ave",2022-08-11 21:04:06,2022-08-12
-79.389437,40.284666,FALSE,"PA","Latrobe","110 Mount Laurel Plz",2022-08-11 21:04:06,2022-08-12
-79.378204,40.107039,FALSE,"PA","Donegal","3612 State Route 31",2022-08-11 21:04:06,2022-08-12
-79.548174,40.81247,FALSE,"PA","Kittanning","Franklin Vlg Shpg Ctr",2022-08-11 21:04:06,2022-08-12
-79.510756,40.303522,FALSE,"PA","Greensburg","985 E Pittsburgh St",2022-08-11 21:04:06,2022-08-12
-79.548085,40.284765,FALSE,"PA","South Greensburg","1207 S Main St",2022-08-11 21:04:06,2022-08-12
-79.605027,40.605322,FALSE,"PA","Leechburg","481 Hyde Park Road",2022-08-11 21:04:06,2022-08-12
-79.585086,40.400993,FALSE,"PA","Delmont","6526 Route 22",2022-08-11 21:04:06,2022-08-12
-79.552131,40.126043,FALSE,"PA","Mount Pleasant","Route 819 South",2022-08-11 21:04:06,2022-08-12
-79.591215,40.305702,FALSE,"PA","Greensburg","6199 Route 30",2022-08-11 21:04:06,2022-08-12
-79.610436,40.21774,FALSE,"PA","New Stanton","9 Byers Rts 119",2022-08-11 21:04:06,2022-08-12
-79.591577,40.024168,FALSE,"PA","Connellsville","705 Memorial Blvd",2022-08-11 21:04:06,2022-08-12
-79.699094,40.427439,FALSE,"PA","Murrysville","3820 Wm Penn Hwy",2022-08-11 21:04:06,2022-08-12
-79.72217,40.626405,FALSE,"PA","Natrona Heights","2001 Freeport Rd",2022-08-11 21:04:06,2022-08-12
-79.692043,40.320951,FALSE,"PA","North Huntingdon","9061 Us Hwy 30",2022-08-11 21:05:06,2022-08-12
-79.7142,40.450605,FALSE,"PA","Plum","1865 New Texas Rd",2022-08-11 21:04:06,2022-08-12
-79.735504,40.591032,FALSE,"PA","Lower Burrell","2741 Leechburg Rd",2022-08-11 21:04:06,2022-08-12
-79.715211,41.350345,FALSE,"PA","Cranberry","7028 Us Hwy 322",2022-08-11 21:04:06,2022-08-12
-79.707274,41.432934,FALSE,"PA","Oil City","5 Elm St",2022-08-11 21:05:06,2022-08-12
-79.672897,41.623478,FALSE,"PA","Titusville","420 S Franklin St",2022-08-11 21:04:06,2022-08-12
-79.756922,40.551872,FALSE,"PA","Lower Burrell","115 Logans Ferry Rd",2022-08-11 21:05:06,2022-08-12
-79.751797,40.434495,FALSE,"PA","Monroeville","4317 Northern Pike",2022-08-11 21:04:06,2022-08-12
-79.742173,40.332078,FALSE,"PA","North Huntingdon","12118 Rt 30 Norwin Town Square",2022-08-11 21:04:06,2022-08-12
-79.788099,40.477237,FALSE,"PA","Penn Hills","7277 Saltsburg Rd",2022-08-11 21:05:06,2022-08-12
-79.786862,40.435395,FALSE,"PA","Monroeville","3760 William Penn Hwy",2022-08-11 21:04:06,2022-08-12
-79.652691,41.934866,FALSE,"PA","Corry","314 W Columbus",2022-08-11 21:05:06,2022-08-12
-79.830173,40.53923,FALSE,"PA","Pittsburgh","2925 Freeport Rd",2022-08-11 21:04:06,2022-08-12
-79.828945,40.465128,FALSE,"PA","Pittsburgh","11591 Frankstown Rd",2022-08-11 21:05:06,2022-08-12
-79.824052,40.384128,FALSE,"PA","North Versailles","505 Lincoln Hwy",2022-08-11 21:04:06,2022-08-12
-79.765121,40.062959,FALSE,"PA","Star Junction","3085 Pittsburgh Rd",2022-08-11 21:04:06,2022-08-12
-79.844954,40.496755,FALSE,"PA","Verona","70 Allegheny River Blvd",2022-08-11 21:04:06,2022-08-12
-79.830716,41.399711,FALSE,"PA","Franklin","13th & Otter St",2022-08-11 21:04:06,2022-08-12
-79.741024,39.906987,FALSE,"PA","Uniontown","421 W Main St",2022-08-11 21:04:06,2022-08-12
-79.734874,39.883933,FALSE,"PA","Uniontown","575 Morgantown Street",2022-08-11 21:05:06,2022-08-12
-79.835764,40.320988,FALSE,"PA","Mckeesport","4235 Walnut St",2022-08-11 21:04:06,2022-08-12
-79.75294,39.902759,FALSE,"PA","Uniontown","1 Work Pkwy",2022-08-11 21:05:06,2022-08-12
-79.863302,40.384225,FALSE,"PA","Duquesne","101 Hoffman Blvd",2022-08-11 21:04:06,2022-08-12
-79.906532,40.89466,FALSE,"PA","Butler","102 Clearview Cir",2022-08-11 21:05:06,2022-08-12
-79.889575,40.486928,FALSE,"PA","Pittsburgh","907 Freeport Road",2022-08-11 21:04:06,2022-08-12
-79.888658,40.444645,FALSE,"PA","Wilkinsburg","430 Penn Ave",2022-08-11 21:04:06,2022-08-12
-79.918668,40.842953,FALSE,"PA","Butler","500 Greater Butler Mart",2022-08-11 21:05:06,2022-08-12
-79.843432,40.137239,FALSE,"PA","Belle Vernon","845 Rostraver Rd",2022-08-11 21:04:06,2022-08-12
-79.861664,40.134136,TRUE,"PA","Belle Vernon","3 Fayette St",2022-08-11 21:04:06,2022-08-12
-79.909881,40.412093,TRUE,"PA","Homestead","400 E Waterfront Dr",2022-08-11 21:05:06,2022-08-12
-79.918492,40.458783,FALSE,"PA","Pittsburgh","6361 Penn Ave",2022-08-11 21:04:06,2022-08-12
-79.948132,40.878159,FALSE,"PA","Butler","680 Butler Crossing",2022-08-11 21:04:06,2022-08-12
-79.926919,40.46308,FALSE,"PA","Pittsburgh","148 North Euclid Avenue",2022-08-11 21:04:06,2022-08-12
-79.944107,40.621498,FALSE,"PA","Gibsonia","200 Walmart Plz",2022-08-11 21:05:06,2022-08-12
-79.947934,40.590007,FALSE,"PA","Hampton Township","4618 William Flynn Hwy (Ds 797)",2022-08-11 21:04:06,2022-08-12
-79.95166,40.513364,TRUE,"PA","Glenshaw","971 William Flynn Hwy",2022-08-11 21:04:06,2022-08-12
-79.865486,40.011865,FALSE,"PA","Grindstone","102 Roberts Rd",2022-08-11 21:04:06,2022-08-12
-79.896053,40.13735,FALSE,"PA","Charleroi","318 Mc Kean Ave",2022-08-11 21:05:06,2022-08-12
-79.957259,40.441228,FALSE,"PA","Pittsburgh","3708 Forbes Ave",2022-08-11 21:04:06,2022-08-12
-79.945316,40.347947,FALSE,"PA","West Mifflin","2090 Lebanon Church Rd",2022-08-11 21:04:06,2022-08-12
-79.945348,40.331689,FALSE,"PA","Pleasant Hills","549 Clariton Blvd",2022-08-11 21:05:06,2022-08-12
-79.925433,40.202971,FALSE,"PA","Monongahela","301 W Main St",2022-08-11 21:04:06,2022-08-12
-79.845136,41.900731,TRUE,"PA","Union City","61 N Main St",2022-08-11 21:04:06,2022-08-12
-79.9839,40.364627,FALSE,"PA","Brentwood","4214 Brownsville Rd",2022-08-11 21:04:06,2022-08-12
-79.990845,40.410177,FALSE,"PA","Mount Oliver","624-630 Brownsville Rd",2022-08-11 21:04:06,2022-08-12
-80.008203,40.528661,FALSE,"PA","Pittsburgh","4849 Mcknight Rd",2022-08-11 21:05:06,2022-08-12
-79.999117,40.442359,FALSE,"PA","Pittsburgh","608 Wood St",2022-08-11 21:04:06,2022-08-12
-80.003619,40.441242,FALSE,"PA","Pittsburgh","500 Liberty Ave",2022-08-11 21:04:06,2022-08-12
-80.016366,40.546367,FALSE,"PA","Pittsburgh","7702 Mc Knight Rd",2022-08-11 21:04:06,2022-08-12
-80.019001,40.450829,FALSE,"PA","Pittsburgh","801 Allegheny Ave",2022-08-11 21:04:06,2022-08-12
-80.029286,40.517558,FALSE,"PA","Pittsburgh","363 Perry Hwy",2022-08-11 21:04:06,2022-08-12
-80.026418,40.398794,FALSE,"PA","Pittsburgh","2518 W Liberty Rd",2022-08-11 21:04:06,2022-08-12
-80.054174,41.06159,FALSE,"PA","Slippery Rock","328 S Main St",2022-08-11 21:05:06,2022-08-12
-79.783128,42.231782,FALSE,"PA","North East","12185 E Main Rd",2022-08-11 21:04:06,2022-08-12
-80.054025,40.610166,FALSE,"PA","Wexford","10529 Perry Hwy",2022-08-11 21:04:06,2022-08-12
-80.022367,40.331891,FALSE,"PA","Bethel Park","5261 Library Rd",2022-08-11 21:04:06,2022-08-12
-80.037877,40.368621,FALSE,"PA","Castle Shannon","225 Mount Lebanon Blvd",2022-08-11 21:05:06,2022-08-12
-80.001926,40.130093,FALSE,"PA","Bentleyville","185 Wilson Rd",2022-08-11 21:04:06,2022-08-12
-80.053412,40.427424,FALSE,"PA","Pittsburgh","1 Poplar St",2022-08-11 21:04:06,2022-08-12
-80.062165,40.492163,FALSE,"PA","Pittsburgh","4557 Ohio River Blvd",2022-08-11 21:04:06,2022-08-12
-80.08256,40.686173,FALSE,"PA","Cranberry Township","1703 Route 228 Cranberry Commons",2022-08-11 21:04:06,2022-08-12
-80.050782,40.338068,FALSE,"PA","Pittsburgh","82 Fort Couch Rd",2022-08-11 21:04:06,2022-08-12
-80.089403,41.157927,FALSE,"PA","Grove City","200 W Main St",2022-08-11 21:05:06,2022-08-12
-80.098671,40.671864,FALSE,"PA","Mars","Route 19, Rd 7",2022-08-11 21:04:06,2022-08-12
-80.095718,40.473952,FALSE,"PA","Mckees Rocks","600 Pine Hollow Rd",2022-08-11 21:04:06,2022-08-12
-80.093111,40.3863,FALSE,"PA","Heidelberg","Rte 50 Raceway Plaza Washington Pike",2022-08-11 21:05:06,2022-08-12
-80.13995,40.964803,FALSE,"PA","Portersville","2012 New Castle Road",2022-08-11 21:04:06,2022-08-12
-80.11461,40.353721,FALSE,"PA","Bridgeville","3023 Washington Pike",2022-08-11 21:04:06,2022-08-12
-80.158063,41.143904,FALSE,"PA","Grove City","1902 Leesburg Grove City Road",2022-08-11 21:04:06,2022-08-12
-80.123986,40.277908,FALSE,"PA","Mc Murray","3723 Washington Rd",2022-08-11 21:04:06,2022-08-12
-80.163059,40.517893,FALSE,"PA","Coraopolis","1010 4th Ave",2022-08-11 21:04:06,2022-08-12
-80.155585,40.448301,FALSE,"PA","Crafton","6380 Stuebenville Pike",2022-08-11 21:04:06,2022-08-12
-80.173152,40.449186,FALSE,"PA","Pittsburgh","100 Davis Blvd",2022-08-11 21:05:06,2022-08-12
-80.176392,40.447246,TRUE,"PA","Pittsburgh","250 Summit Park Dr",2022-08-08 01:00:06,2022-08-08
-80.172296,40.263549,FALSE,"PA","Canonsburg","100 Bobby Vinton Blvd",2022-08-11 21:05:06,2022-08-12
-80.154453,41.634777,FALSE,"PA","Meadville","1060 Park Ave",2022-08-11 21:04:06,2022-08-12
-80.004448,42.146042,FALSE,"PA","Erie","4316 Buffalo Rd",2022-08-11 21:05:06,2022-08-12
-80.219606,40.516946,FALSE,"PA","Moon Township","2805 Gracy Center Way",2022-08-11 21:05:06,2022-08-12
-80.229814,40.633333,FALSE,"PA","Baden","300 Ohio River Blvd",2022-08-11 21:04:06,2022-08-12
-80.039903,42.071143,FALSE,"PA","Erie","7855 Perry Hwy",2022-08-11 21:04:06,2022-08-12
-80.04312,42.123057,FALSE,"PA","Erie","2529 Broad St",2022-08-11 21:05:06,2022-08-12
-80.239349,40.440902,FALSE,"PA","Oakdale","300 Market Place Dr",2022-08-11 21:05:06,2022-08-12
-80.246324,40.496115,TRUE,"PA","Pittsburgh","Pittsburgh Intl Air-Main Terminal",2022-08-11 21:04:06,2022-08-12
-80.255992,40.570474,FALSE,"PA","Aliquippa","3003 Height Rd",2022-08-11 21:04:06,2022-08-12
-80.129197,41.875718,FALSE,"PA","Edinboro","120 E Plum St",2022-08-11 21:05:06,2022-08-12
-80.21048,40.223689,FALSE,"PA","Washington","235 Meadowlands Blvd",2022-08-11 21:05:06,2022-08-12
-80.199633,41.624118,FALSE,"PA","Meadville","16830 Conneaut Lake Rd",2022-08-11 21:04:06,2022-08-12
-80.147017,39.899653,FALSE,"PA","Waynesburg","273 East Roy Furman Parkway",2022-08-11 21:05:06,2022-08-12
-80.086596,42.053152,FALSE,"PA","Erie","7200 Peach St",2022-08-11 21:04:06,2022-08-12
-80.286911,40.861944,FALSE,"PA","Ellwood City","15 5th St",2022-08-11 21:04:06,2022-08-12
-80.222025,40.185441,FALSE,"PA","Washington","1001 Trinity Circle",2022-08-11 21:05:06,2022-08-12
-80.085535,42.08933,FALSE,"PA","Erie","4319 Peach St",2022-08-11 21:05:06,2022-08-12
-80.100905,42.064011,FALSE,"PA","Erie","2065 Interchange Rd",2022-08-11 21:04:06,2022-08-12
-80.169968,39.895985,FALSE,"PA","Waynesburg","5 Sugar Run Rd",2022-08-11 21:05:06,2022-08-12
-80.085192,42.122705,FALSE,"PA","Erie","1115 Sassafras St",2022-08-11 21:05:06,2022-08-12
-80.301461,40.680562,FALSE,"PA","Monaca","3946 Broadhead Rd",2022-08-11 21:04:06,2022-08-12
-80.311786,40.970142,FALSE,"PA","New Castle","2509 Elwood Rd",2022-08-11 21:05:06,2022-08-12
-80.319712,40.757638,FALSE,"PA","Beaver Falls","1625 7th Ave",2022-08-11 21:04:06,2022-08-12
-80.319984,40.689194,FALSE,"PA","Beaver","190 State St",2022-08-11 21:04:06,2022-08-12
-80.317707,40.634363,FALSE,"PA","Aliquippa","131 Pleasant Dr",2022-08-11 21:05:06,2022-08-12
-80.264644,40.181765,FALSE,"PA","Washington","999 Jefferson Ave",2022-08-11 21:04:06,2022-08-12
-80.133073,42.08933,FALSE,"PA","Erie","2643 W 26th St",2022-08-11 21:05:06,2022-08-12
-80.270972,40.165395,TRUE,"PA","Washington","1294 W Chestnut St",2022-08-11 21:04:06,2022-08-12
-80.353377,41.027644,FALSE,"PA","New Castle","2424 Wilmington Rd",2022-08-11 21:05:06,2022-08-12
-80.146746,42.102353,FALSE,"PA","Erie","909 Peninsula Dr",2022-08-11 21:05:06,2022-08-12
-80.372978,40.772803,FALSE,"PA","Beaver Falls","2546 Constitution Blvd",2022-08-11 21:04:06,2022-08-12
-80.394065,41.01122,FALSE,"PA","New Castle","2537 West State St",2022-08-11 21:04:06,2022-08-12
-80.3589,41.412282,FALSE,"PA","Greenville","63 Hadley Rd",2022-08-11 21:04:06,2022-08-12
-80.393553,40.380948,FALSE,"PA","Burgettstown","1412-B Main Street",2022-08-11 21:04:06,2022-08-12
-80.45031,41.235456,FALSE,"PA","Hermitage","145 N Hermitage Rd",2022-08-11 21:04:06,2022-08-12
-80.301764,42.009804,FALSE,"PA","Girard","9123 West Ridge Rd",2022-08-11 21:04:06,2022-08-12
-80.472021,41.23288,FALSE,"PA","Hermitage Twp","2066 E State St",2022-08-11 21:04:06,2022-08-12
-80.350976,41.890768,FALSE,"PA","Albion","10541 Route 6n",2022-08-11 21:04:06,2022-08-12
-80.510139,41.232589,FALSE,"PA","Sharon","67 W State St",2022-08-11 21:04:06,2022-08-12
