"lon","lat","is_broken","state","city","street","last_checked","date"
-117.040146,48.184191,FALSE,"WA","Newport","422 N Newport Ave",2022-08-11 20:47:06,2022-08-12
-117.105118,47.669728,FALSE,"WA","Liberty Lake","1306 N Liberty Lake Rd",2022-08-11 20:48:06,2022-08-12
-117.042226,46.420188,FALSE,"WA","Clarkston","350 Bridge St",2022-08-11 20:47:06,2022-08-12
-117.196157,47.689385,FALSE,"WA","Spokane","3530 N Sullivan Rd",2022-08-11 20:47:06,2022-08-12
-117.197445,47.664952,FALSE,"WA","Veradale","819 N Sullivan Rd",2022-08-11 20:47:06,2022-08-12
-117.263794,47.656625,FALSE,"WA","Spokane Valley","10516 E Sprague Ave",2022-08-11 20:47:06,2022-08-12
-117.171213,46.739599,FALSE,"WA","Pullman","400 Stadium Way N",2022-08-11 20:47:06,2022-08-12
-117.282127,47.677586,FALSE,"WA","Spokane","2222 N Argonne Road",2022-08-11 20:48:06,2022-08-12
-117.181668,46.7148,FALSE,"WA","Pullman","1620 Grand Ave S",2022-08-11 20:47:06,2022-08-12
-117.353085,47.785715,FALSE,"WA","Mead","14118 N Newport Hwy",2022-08-11 20:48:06,2022-08-12
-117.346133,47.65691,FALSE,"WA","Spokane","South 15 Havana",2022-08-11 20:47:06,2022-08-12
-117.364768,47.688407,FALSE,"WA","Spokane","3416 N Market St",2022-08-11 20:47:06,2022-08-12
-117.368076,47.628537,TRUE,"WA","Spokane","2903 E 29th Avenue",2022-08-11 20:47:06,2022-08-12
-117.367697,47.610829,FALSE,"WA","Spokane","4647 S Regal St",2022-08-11 20:48:06,2022-08-12
-117.401774,47.773143,FALSE,"WA","Spokane","12802 North Sr 395",2022-08-11 20:47:06,2022-08-12
-117.396933,47.672434,FALSE,"WA","Spokane","1617 North Hamilton Street",2022-08-11 20:47:06,2022-08-12
-117.410035,47.741789,FALSE,"WA","Spokane","9305 N Newport Highway",2022-08-11 20:47:06,2022-08-12
-117.410481,47.698552,FALSE,"WA","Spokane","4436 N Division Street",2022-08-11 20:48:06,2022-08-12
-117.425689,47.715911,FALSE,"WA","Spokane","6321 N Monroe St",2022-08-11 20:47:06,2022-08-12
-117.420565,47.653196,FALSE,"WA","Spokane","517 W Third Avenue",2022-08-11 20:47:06,2022-08-12
-117.425851,47.674703,FALSE,"WA","Spokane","1818 N Monroe",2022-08-11 20:47:06,2022-08-12
-117.436322,47.652288,FALSE,"WA","Spokane","404 S Maple",2022-08-11 20:48:06,2022-08-12
-117.44346,47.700288,FALSE,"WA","Spokane","2211 W Wellesley Avenue",2022-08-11 20:47:06,2022-08-12
-117.477739,47.944146,FALSE,"WA","Deer Park","900 S Main Ave",2022-08-11 20:47:06,2022-08-12
-117.485232,47.738988,FALSE,"WA","Spokane","8827 North Indian Trail Road",2022-08-11 20:47:06,2022-08-12
-117.563949,47.589613,FALSE,"WA","Spokane","10511 W Aero Road",2022-08-11 20:47:06,2022-08-12
-117.577969,47.643415,FALSE,"WA","Airway Heights","12002 W Sunset Hwy",2022-08-11 20:48:06,2022-08-12
-117.565473,47.50206,FALSE,"WA","Cheney","2324 1st St",2022-08-11 20:47:06,2022-08-12
-117.904297,48.533961,FALSE,"WA","Colville","1103 S Main",2022-08-11 20:48:06,2022-08-12
-118.367524,47.117837,FALSE,"WA","Ritzville","101 W Galbreath Way",2022-08-11 20:47:06,2022-08-12
-118.303047,46.075631,FALSE,"WA","Walla Walla","2130 E Isaacs Ave",2022-08-11 20:48:06,2022-08-12
-118.346594,46.055035,FALSE,"WA","Walla Walla","814 S 9th",2022-08-11 20:47:06,2022-08-12
-119.168474,46.826579,FALSE,"WA","Othello","445 E Main St",2022-08-11 20:48:06,2022-08-12
-119.247147,47.101077,FALSE,"WA","Moses Lake","1795 Kittleson Rd",2022-08-11 20:48:06,2022-08-12
-119.120368,46.241129,FALSE,"WA","Pasco","2202 W Court St",2022-08-11 20:47:06,2022-08-12
-119.277947,47.140076,FALSE,"WA","Moses Lake","825 N Stratford Rd",2022-08-11 20:48:06,2022-08-12
-119.15821,46.208939,FALSE,"WA","Kennewick","2721 W Kennewick Ave",2022-08-11 20:48:06,2022-08-12
-119.184873,46.271356,FALSE,"WA","Pasco","4810 Rd 68",2022-08-11 20:47:06,2022-08-12
-119.174362,46.184302,FALSE,"WA","Kennewick","2700 S Quillan",2022-08-11 20:47:06,2022-08-12
-119.507485,48.417106,FALSE,"WA","Omak","901 Engh Rd",2022-08-11 20:48:06,2022-08-12
-119.208056,46.2262,FALSE,"WA","Kennewick","1409 N Kellogg St",2022-08-11 20:48:06,2022-08-12
-119.222734,46.209665,FALSE,"WA","Kennewick","7505 W Clearwater",2022-08-11 20:47:06,2022-08-12
-119.24345,46.228093,FALSE,"WA","Kennewick","1922 N Steptoe",2022-08-11 20:47:06,2022-08-12
-119.275013,46.285475,FALSE,"WA","Richland","1275 George Washington Way",2022-08-11 20:48:06,2022-08-12
-119.285224,46.260737,FALSE,"WA","Richland","101 D Wellsian Way",2022-08-11 20:47:06,2022-08-12
-119.311669,46.257004,FALSE,"WA","Richland","2751 Queensgate Drive",2022-08-08 01:00:06,2022-08-08
-119.557363,47.311876,FALSE,"WA","Ephrata","1010 Basin St Sw",2022-08-08 01:00:06,2022-08-08
-119.785766,48.101582,FALSE,"WA","Brewster","715 Hwy 97",2022-08-11 20:48:06,2022-08-12
-119.854291,47.233105,FALSE,"WA","Quincy","24 F St Sw",2022-08-11 20:48:06,2022-08-12
-119.788736,46.220337,FALSE,"WA","Prosser","103 Merlot Dr",2022-08-11 20:48:06,2022-08-12
-119.991068,46.322464,FALSE,"WA","Sunnyside","2200 Yakima Valley Hwy",2022-08-11 20:48:06,2022-08-12
-120.288307,47.408086,FALSE,"WA","East Wenatchee","201 Valley Mall Parkway",2022-08-11 20:48:06,2022-08-12
-120.324186,47.436746,FALSE,"WA","Wenatchee","1024 Mission St",2022-08-11 20:48:06,2022-08-12
-120.276259,46.40418,FALSE,"WA","Zillah","820 Zillah West Rd",2022-08-11 20:48:06,2022-08-12
-120.322898,46.375451,FALSE,"WA","Toppenish","739 W 1st Ave",2022-08-11 20:48:06,2022-08-12
-120.544617,46.980471,FALSE,"WA","Ellensburg","1304 Canyon Rd",2022-08-11 20:48:06,2022-08-12
-120.480296,46.601469,FALSE,"WA","Yakima","1600 E Chestnut Ave",2022-08-11 20:48:06,2022-08-12
-120.656389,47.598405,FALSE,"WA","Leavenworth","1250 Hwy 2",2022-08-11 20:48:06,2022-08-12
-120.485124,46.567401,FALSE,"WA","Union Gap","2326 S 1st St",2022-08-11 20:48:06,2022-08-12
-120.496953,46.586542,FALSE,"WA","Yakima","1305 S 1st St",2022-08-11 20:48:06,2022-08-12
-120.506622,46.602444,FALSE,"WA","Yakima","19 E Yakima Avenue",2022-08-11 20:48:06,2022-08-12
-120.529998,46.647165,FALSE,"WA","Selah","499 S 1st St",2022-08-11 20:48:06,2022-08-12
-120.530996,46.603797,FALSE,"WA","Yakima","1601 W Lincoln",2022-08-11 20:48:06,2022-08-12
-120.56168,46.618395,FALSE,"WA","Yakima","3907 River Rd",2022-08-11 20:48:06,2022-08-12
-120.587764,46.599656,FALSE,"WA","Yakima","5910 Summitview Ave",2022-08-11 20:48:06,2022-08-12
-120.952528,47.195767,FALSE,"WA","Cle Elum","702 West First Street",2022-08-11 20:48:06,2022-08-12
-120.808434,45.812468,FALSE,"WA","Goldendale","912 Simcoe Rd",2022-08-11 20:48:06,2022-08-12
-121.777094,47.868316,FALSE,"WA","Sultan","33901 State Rte 2",2022-08-11 20:49:06,2022-08-12
-121.793973,47.488375,FALSE,"WA","North Bend","735 Mount Si Blvd",2022-08-11 20:49:06,2022-08-12
-121.975046,48.082745,FALSE,"WA","Granite Falls","502 W Stanley St",2022-08-11 20:49:06,2022-08-12
-121.967939,47.859169,FALSE,"WA","Monroe","19515 State Hwy 2",2022-08-11 20:49:06,2022-08-12
-122.025305,47.69997,FALSE,"WA","Redmond","23545 Ne Novelty Hill Rd",2022-08-11 20:49:06,2022-08-12
-122.127602,48.181315,FALSE,"WA","Arlington","7607 Ne 204th",2022-08-11 20:49:06,2022-08-12
-122.03596,47.614917,FALSE,"WA","Sammamish","615 228th Ave Ne",2022-08-11 20:49:06,2022-08-12
-122.105307,48.001764,FALSE,"WA","Lake Stevens","507 Hwy 9",2022-08-11 20:49:06,2022-08-12
-122.097264,47.923324,FALSE,"WA","Snohomish","917 Ave D",2022-08-11 20:49:06,2022-08-12
-121.978557,47.199065,FALSE,"WA","Enumclaw","110 Roosevelt Ave E",2022-08-11 20:49:06,2022-08-12
-122.043438,47.552715,FALSE,"WA","Issaquah","5526 E Lake Sammamish Pky",2022-08-11 20:49:06,2022-08-12
-122.020284,47.359988,FALSE,"WA","Maple Valley","26924 Maple Valley Hwy",2022-08-11 20:49:06,2022-08-12
-122.058611,47.545425,FALSE,"WA","Issaquah","1305 Nw Gilman Blvd",2022-08-11 20:49:06,2022-08-12
-122.046328,47.393246,FALSE,"WA","Maple Valley","23225 Maple Valley Hwy",2022-08-11 20:49:06,2022-08-12
-122.124521,47.837723,FALSE,"WA","Snohomish","17422 Hwy 9 Se",2022-08-11 20:49:06,2022-08-12
-122.181788,48.152988,FALSE,"WA","Arlington","3529 172nd St Ne",2022-08-11 20:49:06,2022-08-12
-122.173466,48.083806,FALSE,"WA","Marysville","9720 State Ave",2022-08-11 20:49:06,2022-08-12
-122.114188,47.671515,TRUE,"WA","Redmond","16975 Redmond Way",2022-08-11 20:49:06,2022-08-12
-122.186255,48.090954,FALSE,"WA","Marysville","10510 Quil Ceda Blvd",2022-08-11 20:49:06,2022-08-12
-122.186196,48.052991,TRUE,"WA","Marysville","6323 33rd Ave Ne",2022-08-11 20:49:06,2022-08-12
-122.257746,48.501653,FALSE,"WA","Sedro Woolley","1017 Hodgin Street",2022-08-11 20:49:06,2022-08-12
-122.153447,47.752848,FALSE,"WA","Woodinville","17450 140th Ave Ne",2022-08-11 20:49:06,2022-08-12
-122.132783,47.622584,FALSE,"WA","Bellevue","1401 156th Ave Ne",2022-08-11 20:49:06,2022-08-12
-122.202576,47.982239,FALSE,"WA","Everett","2001 Everett Ave",2022-08-11 20:49:06,2022-08-12
-122.136119,47.581241,FALSE,"WA","Bellevue","3239 156th Ave Se",2022-08-11 20:49:06,2022-08-12
-122.187514,47.877649,FALSE,"WA","Mill Creek","3316 132nd St Se",2022-08-11 20:49:06,2022-08-12
-122.208497,47.963696,TRUE,"WA","Everett","4020 Colby Ave",2022-08-11 20:49:06,2022-08-12
-122.154566,47.627637,FALSE,"WA","Bellevue","13841 Ne 20th",2022-08-11 20:49:06,2022-08-12
-122.174217,47.731595,FALSE,"WA","Kirkland","12440 Ne 144th",2022-08-11 20:49:06,2022-08-12
-122.108374,47.35789,FALSE,"WA","Covington","17431 S 272nd St",2022-08-11 20:49:06,2022-08-12
-122.176535,47.679707,FALSE,"WA","Kirkland","8515 124th Ave Ne",2022-08-11 20:49:06,2022-08-12
-122.186172,47.712568,FALSE,"WA","Kirkland","12514 116th Ave Ne",2022-08-11 20:49:06,2022-08-12
-122.225411,47.925795,FALSE,"WA","Everett","7920 Evergreen Way",2022-08-11 20:49:06,2022-08-12
-122.168998,47.57315,FALSE,"WA","Bellevue","4056 Factoria Blvd",2022-08-11 20:49:06,2022-08-12
-122.226905,47.908213,FALSE,"WA","Everett","316 S Everett Mall Way",2022-08-11 20:49:06,2022-08-12
-122.218353,47.849983,FALSE,"WA","Mill Creek","16320 Bothell Everett Hwy",2022-08-11 20:49:06,2022-08-12
-122.312558,48.435408,TRUE,"WA","Mount Vernon","2200 E College Way",2022-08-11 20:49:06,2022-08-12
-122.159714,47.504227,FALSE,"WA","Renton","4411 Ne Sunset Blvd",2022-08-11 20:49:06,2022-08-12
-122.165952,47.537282,FALSE,"WA","Newcastle","13049 Se 69th Way",2022-08-11 20:49:06,2022-08-12
-122.212016,47.797135,FALSE,"WA","Bothell","22110 17th Ave Se",2022-08-11 20:49:06,2022-08-12
-122.151299,47.445217,FALSE,"WA","Renton","14120 Se Petrovitsky Rd",2022-08-11 20:49:06,2022-08-12
-122.20729,47.722784,FALSE,"WA","Kirkland","13636 100th Ave Ne",2022-08-11 20:49:06,2022-08-12
-122.241384,47.88147,FALSE,"WA","Everett","530 128th Street Sw",2022-08-11 20:49:06,2022-08-12
-122.175259,47.487929,FALSE,"WA","Renton","3209 Ne 4th",2022-08-11 20:49:06,2022-08-12
-122.335995,48.448479,FALSE,"WA","Burlington","2034 Marketplace Dr",2022-08-11 20:49:06,2022-08-12
-122.34368,48.46847,FALSE,"WA","Burlington","876 Nevitt Rd",2022-08-11 20:49:06,2022-08-12
-122.195173,47.531989,FALSE,"WA","Renton","1705 Ne 44th",2022-08-11 20:49:06,2022-08-12
-122.244726,47.75798,FALSE,"WA","Bothell","7234 Bothell Way",2022-08-11 20:49:06,2022-08-12
-122.329571,48.239217,FALSE,"WA","Stanwood","26713 72nd Ave Nw",2022-08-11 20:49:06,2022-08-12
-122.198096,47.44624,FALSE,"WA","Renton","10715 Se 174th Street",2022-08-11 20:49:06,2022-08-12
-122.148892,47.167343,FALSE,"WA","Bonney Lake","21007 Hwy 410",2022-08-11 20:49:06,2022-08-12
-122.268581,47.820426,FALSE,"WA","Lynnwood","2608 196th St Sw",2022-08-11 20:49:06,2022-08-12
-122.284668,47.890429,FALSE,"WA","Mukilteo","3717 Harbour Pointe Blvd Sw",2022-08-11 20:49:06,2022-08-12
-122.212643,47.471234,FALSE,"WA","Renton","401 S Grady Way",2022-08-11 20:49:06,2022-08-12
-122.197843,47.386452,FALSE,"WA","Kent","10715 Se 240th St",2022-08-11 20:49:06,2022-08-12
-122.282586,47.862703,FALSE,"WA","Lynnwood","14923 Hwy 99",2022-08-11 20:49:06,2022-08-12
-122.234588,47.585426,FALSE,"WA","Mercer Island","2807 78th St Se",2022-08-11 20:49:06,2022-08-12
-122.217821,47.484108,FALSE,"WA","Renton","73 Rainier Ave S",2022-08-11 20:49:06,2022-08-12
-122.221038,47.472142,FALSE,"WA","Renton","743 Rainier Ave S",2022-08-11 20:49:06,2022-08-12
-122.205064,47.371993,FALSE,"WA","Kent","10125 Se 256th St",2022-08-11 20:49:06,2022-08-12
-122.171785,47.167652,FALSE,"WA","Bonney Lake","19205 Sr 410 East",2022-08-11 20:49:06,2022-08-12
-122.293026,47.818983,TRUE,"WA","Lynnwood","19808 44th Ave W",2022-08-11 20:49:06,2022-08-12
-122.443254,48.788896,FALSE,"WA","Bellingham","2433 E Bakerview Road",2022-08-11 20:49:06,2022-08-12
-122.29827,47.839551,FALSE,"WA","Lynnwood","17531 Hwy 99",2022-08-11 20:49:06,2022-08-12
-122.228618,47.412649,FALSE,"WA","Kent","8320 S 212th St",2022-08-11 20:49:06,2022-08-12
-122.292977,47.734201,FALSE,"WA","Shoreline","14507 Bothell Way Ne",2022-08-11 20:49:06,2022-08-12
-122.2221,47.321623,FALSE,"WA","Auburn","1531 Auburn Way N",2022-08-11 20:49:06,2022-08-12
-122.484858,48.936191,FALSE,"WA","Lynden","8106 Guide Meridian Rd",2022-08-11 20:49:06,2022-08-12
-122.211678,47.243785,FALSE,"WA","Auburn","1400 Lake Tapps Way",2022-08-11 20:49:06,2022-08-12
-122.224101,47.301124,FALSE,"WA","Auburn","702 Auburn Way S",2022-08-11 20:49:06,2022-08-12
-122.463039,48.755522,FALSE,"WA","Bellingham","1914 King St",2022-08-11 20:49:06,2022-08-12
-122.266902,47.520192,FALSE,"WA","Seattle","9304 Rainier Ave S",2022-08-11 20:49:06,2022-08-12
-122.312002,47.77579,FALSE,"WA","Seattle","20227 Ballinger Way Ne",2022-08-11 20:49:06,2022-08-12
-122.228461,47.273376,FALSE,"WA","Auburn","3920 A St Se",2022-08-11 20:49:06,2022-08-12
-122.248523,47.380981,FALSE,"WA","Kent","1236 W Meeker",2022-08-11 20:49:06,2022-08-12
-122.300355,47.667733,FALSE,"WA","Seattle","5146 25th Ave Ne",2022-08-11 20:49:06,2022-08-12
-122.470529,48.734355,FALSE,"WA","Bellingham","112 Samish Way",2022-08-11 20:49:06,2022-08-12
-122.262957,47.454461,FALSE,"WA","Tukwila","16501 S Center Pky",2022-08-11 20:49:06,2022-08-12
-122.482058,48.801543,TRUE,"WA","Bellingham","4420 Meridian Street",2022-08-11 20:49:06,2022-08-12
-122.328965,47.804376,TRUE,"WA","Edmonds","21420 Hwy 99",2022-08-11 20:49:06,2022-08-12
-122.285898,47.545613,FALSE,"WA","Seattle","6305 Martin Luther King Jr Way S",2022-08-11 20:49:06,2022-08-12
-122.487172,48.78394,TRUE,"WA","Bellingham","101 W Telegraph Rd",2022-08-11 20:49:06,2022-08-12
-122.209835,47.100357,FALSE,"WA","Orting","321 Washington Ave N",2022-08-11 20:49:06,2022-08-12
-122.300053,47.581633,FALSE,"WA","Seattle","2336 25th Ave S",2022-08-11 20:49:06,2022-08-12
-122.230189,47.202526,FALSE,"WA","Sumner","1906 Main St",2022-08-11 20:49:06,2022-08-12
-122.248467,47.296216,FALSE,"WA","Auburn","1304 Outlet Collection Way Sw",2022-08-11 20:49:06,2022-08-12
-122.287806,47.466338,TRUE,"WA","Tukwila","15210 Pacific Hwy W",2022-08-11 20:49:06,2022-08-12
-122.33165,47.708315,FALSE,"WA","Seattle","2147 Northgate Way",2022-08-11 20:49:06,2022-08-12
-122.345756,47.738646,FALSE,"WA","Shoreline","15201 Aurora Ave N",2022-08-11 20:49:06,2022-08-12
-122.314499,47.516667,FALSE,"WA","Seattle","9610 Des Moines Memorial Dr S",2022-08-11 20:49:06,2022-08-12
-122.302696,47.443648,FALSE,"WA","Seattle","17801 International Blvd",2022-08-11 20:49:06,2022-08-12
-122.295337,47.397982,FALSE,"WA","Des Moines","22644 Pacific Hwy S",2022-08-11 20:49:06,2022-08-12
-122.329522,47.581513,FALSE,"WA","Seattle","2401 4th Ave S",2022-08-11 20:49:06,2022-08-12
-122.368853,47.791032,FALSE,"WA","Edmonds","10124 Edmonds Way",2022-08-11 20:49:06,2022-08-12
-122.338389,47.610689,FALSE,"WA","Seattle","1530 3rd Ave",2022-08-11 20:49:06,2022-08-12
-122.347155,47.620527,FALSE,"WA","Seattle","222 5th Ave N",2022-08-11 20:49:06,2022-08-12
-122.303278,47.315474,TRUE,"WA","Federal Way","2302 S 320th St",2022-08-11 20:49:06,2022-08-12
-122.311648,47.354876,FALSE,"WA","Federal Way","27515 Pacific Hwy S",2022-08-11 20:49:06,2022-08-12
-122.3745,47.695071,FALSE,"WA","Seattle","9000 Holman Rd Nw",2022-08-11 20:49:06,2022-08-12
-122.33336,47.462651,FALSE,"WA","Burien","15620 1st Ave S",2022-08-11 20:49:06,2022-08-12
-122.294466,47.252008,FALSE,"WA","Milton","620 Meridian E",2022-08-11 20:49:06,2022-08-12
-122.309706,47.32175,TRUE,"WA","Federal Way","1900 S 314th St",2022-08-11 20:49:06,2022-08-12
-122.37307,47.668354,FALSE,"WA","Seattle","5400 14th Ave Nw",2022-08-11 20:49:06,2022-08-12
-122.292419,47.193672,FALSE,"WA","Puyallup","304 2nd St Ne",2022-08-11 20:49:06,2022-08-12
-122.288796,47.161068,FALSE,"WA","Puyallup","310 31st Ave Se",2022-08-11 20:49:06,2022-08-12
-122.354649,47.501285,FALSE,"WA","Burien","1516 Sw 114th Street",2022-08-11 20:49:06,2022-08-12
-122.573189,48.848559,FALSE,"WA","Ferndale","1688 Main St",2022-08-11 20:49:06,2022-08-12
-122.317554,47.289332,TRUE,"WA","Federal Way","34814 Pacific Hwy S",2022-08-11 20:49:06,2022-08-12
-122.292545,47.148484,FALSE,"WA","Puyallup","4603 S Meridian",2022-08-11 20:49:06,2022-08-12
-122.366301,47.521372,FALSE,"WA","Seattle","2580 Sw Barton St",2022-08-11 20:49:06,2022-08-12
-122.303169,47.16029,FALSE,"WA","Puyallup","804 S Hill Park Dr",2022-08-11 20:49:06,2022-08-12
-122.292774,47.099445,FALSE,"WA","Puyallup","17301 Meridian E",2022-08-11 20:49:06,2022-08-12
-122.387001,47.576649,FALSE,"WA","Seattle","3003 California Ave Sw",2022-08-11 20:49:06,2022-08-12
-122.386888,47.543301,FALSE,"WA","Seattle","6546 California Ave Sw",2022-08-11 20:49:06,2022-08-12
-122.361066,47.241522,FALSE,"WA","Fife","1737 51st Ave E",2022-08-11 20:49:06,2022-08-12
-122.358176,47.096748,FALSE,"WA","Tacoma","17509 Canyon Pkwy E",2022-08-11 20:49:06,2022-08-12
-122.612157,48.511301,FALSE,"WA","Anacortes","1301 Commercial St",2022-08-11 20:49:06,2022-08-12
-122.500859,47.801287,FALSE,"WA","Kingston","10977 Ne State Hwy 104",2022-08-11 20:49:06,2022-08-12
-122.401085,47.157118,FALSE,"WA","Tacoma","10909 Portland Ave",2022-08-11 20:49:06,2022-08-12
-122.514822,47.635428,TRUE,"WA","Bainbridge Island","501 High School Rd Ne",2022-08-11 20:49:06,2022-08-12
-122.445446,47.255153,FALSE,"WA","Tacoma","802 Tacoma Ave S",2022-08-11 20:49:06,2022-08-12
-122.43364,47.191662,FALSE,"WA","Tacoma","7217 Pacific Ave",2022-08-11 20:49:06,2022-08-12
-122.435018,47.156894,FALSE,"WA","Tacoma","11012 Pacific Ave",2022-08-11 20:49:06,2022-08-12
-122.419009,47.072325,FALSE,"WA","Spanaway","20315 Mountain Hwy E",2022-08-11 20:49:06,2022-08-12
-122.644137,48.305229,FALSE,"WA","Oak Harbor","841 Ne Midway Blvd",2022-08-11 20:49:06,2022-08-12
-122.435414,47.121583,FALSE,"WA","Spanaway","14900 Pacific Ave South",2022-08-11 20:49:06,2022-08-12
-122.474519,47.222036,FALSE,"WA","Tacoma","2916 S 38th Ave",2022-08-11 20:49:06,2022-08-12
-122.481751,47.23991,FALSE,"WA","Tacoma","1975 S Union Avenue",2022-08-11 20:49:06,2022-08-12
-122.483035,47.163211,FALSE,"WA","Tacoma","10417 Pacific Hwy Sw",2022-08-11 20:49:06,2022-08-12
-122.502423,47.234082,FALSE,"WA","Tacoma","4814 Center St",2022-08-11 20:49:06,2022-08-12
-122.515281,47.268062,FALSE,"WA","Tacoma","2203 N Pearl St",2022-08-11 20:49:06,2022-08-12
-122.521484,47.255825,FALSE,"WA","Tacoma","6311 6th Ave",2022-08-11 20:49:06,2022-08-12
-122.511428,47.18987,FALSE,"WA","Lakewood","7413 Custer Road Sw",2022-08-11 20:49:06,2022-08-12
-122.526667,47.24254,FALSE,"WA","University Place","6700 19th St W",2022-08-11 20:49:06,2022-08-12
-122.518366,47.166382,FALSE,"WA","Tacoma","6002 100th St Sw",2022-08-11 20:49:06,2022-08-12
-122.596289,47.53434,FALSE,"WA","Port Orchard","4225 Se Mile Hill Dr",2022-08-11 20:49:06,2022-08-12
-122.537484,47.222105,FALSE,"WA","University Place","3802 Bridgeport Way W",2022-08-11 20:49:06,2022-08-12
-122.629375,47.62588,FALSE,"WA","Bremerton","6755 Sr 303 Ne",2022-08-11 20:49:06,2022-08-12
-122.546604,47.180181,FALSE,"WA","Lakewood","8201 Steilacoom Blvd Sw",2022-08-11 20:49:06,2022-08-12
-122.655081,47.749418,FALSE,"WA","Poulsbo","20533 Viking Ave Nw",2022-08-11 20:49:06,2022-08-12
-122.62904,47.597471,FALSE,"WA","Bremerton","3580 Wheaton Way",2022-08-11 20:49:06,2022-08-12
-122.576933,47.307294,FALSE,"WA","Gig Harbor","5500 Olympic Drive",2022-08-11 20:49:06,2022-08-12
-122.553094,47.122401,FALSE,"WA","Lakewood","15004 Union Ave Sw",2022-08-11 20:49:06,2022-08-12
-122.605652,47.359216,FALSE,"WA","Gig Harbor","5050 Borgen Blvd",2022-08-11 20:49:06,2022-08-12
-122.64383,47.502308,FALSE,"WA","Port Orchard","233 Bravo Terrace Southeast",2022-08-11 20:49:06,2022-08-12
-122.662224,47.571805,FALSE,"WA","Bremerton","3426 Kitsap Way",2022-08-11 20:49:06,2022-08-12
-122.686078,47.658087,FALSE,"WA","Silverdale","10444 Silverdale Way Nw",2022-08-11 20:49:06,2022-08-12
-122.78042,48.108273,FALSE,"WA","Port Townsend","310 Sims Way",2022-08-11 20:49:06,2022-08-12
-122.712184,47.689046,FALSE,"WA","Silverdale","2904 Pampana St",2022-08-11 20:49:06,2022-08-12
-122.612151,46.944685,FALSE,"WA","Yelm","505 Yelm Ave W",2022-08-11 20:49:06,2022-08-12
-122.645616,47.090696,FALSE,"WA","Dupont","1565 Wilmington Drive",2022-08-11 20:49:06,2022-08-12
-122.369886,45.58458,FALSE,"WA","Camas","3354 Ne 3rd Ave",2022-08-11 20:49:06,2022-08-12
-122.818677,47.455361,FALSE,"WA","Belfair","Ne 24200 State Route 3",2022-08-11 20:50:06,2022-08-12
-122.765095,47.059089,TRUE,"WA","Lacey","1325 Marvin Rd Ne",2022-08-11 20:50:06,2022-08-12
-122.803021,47.037487,FALSE,"WA","Lacey","6000 Pacific Ave Se",2022-08-11 20:50:06,2022-08-12
-122.509034,45.671643,FALSE,"WA","Vancouver","15813 Ne Fourth Plain Blvd",2022-08-11 20:50:06,2022-08-12
-122.543503,45.780433,FALSE,"WA","Battle Ground","515 W Main St",2022-08-11 20:50:06,2022-08-12
-122.503447,45.603553,FALSE,"WA","Vancouver","2400 Se 165th Ave",2022-08-11 20:50:06,2022-08-12
-122.833332,47.044251,FALSE,"WA","Lacey","520 Sleater Kinney Rd",2022-08-11 20:50:06,2022-08-12
-122.826834,46.996011,FALSE,"WA","Lacey","4640 Whitman Ln Se",2022-08-11 20:50:06,2022-08-12
-122.537447,45.618777,FALSE,"WA","Vancouver","405 Se 131st Ave",2022-08-11 20:50:06,2022-08-12
-122.558848,45.662804,FALSE,"WA","Vancouver","5517 Ne Gher Rd",2022-08-11 20:50:06,2022-08-12
-122.892635,47.04243,FALSE,"WA","Olympia","715 Plum St Se",2022-08-11 20:50:06,2022-08-12
-122.908314,46.997703,FALSE,"WA","Tumwater","5601 Capitol Blvd",2022-08-11 20:50:06,2022-08-12
-122.601243,45.64286,FALSE,"WA","Vancouver","2814 Ne Andresen Rd",2022-08-11 20:50:06,2022-08-12
-123.119019,48.079383,FALSE,"WA","Sequim","107 S 7th Ave",2022-08-11 20:50:06,2022-08-12
-122.933688,47.04587,FALSE,"WA","Olympia","2611 W Harrison",2022-08-11 20:50:06,2022-08-12
-122.940353,47.033262,FALSE,"WA","Olympia","1335 Cooper Point Road Sw",2022-08-11 20:50:06,2022-08-12
-122.652405,45.715311,FALSE,"WA","Vancouver","13002 Ne Hwy 99",2022-08-11 20:50:06,2022-08-12
-122.935059,46.953405,FALSE,"WA","Tumwater","2430 93rd Ave Sw",2022-08-11 20:50:06,2022-08-12
-122.648459,45.638879,FALSE,"WA","Vancouver","2110 E 4th Plain Blvd",2022-08-11 20:50:06,2022-08-12
-122.663851,45.692794,FALSE,"WA","Vancouver","710 Ne 98th Cir",2022-08-11 20:50:06,2022-08-12
-122.663405,45.673791,FALSE,"WA","Vancouver","7010 Hwy 99",2022-08-11 20:50:06,2022-08-12
-122.904252,46.604819,FALSE,"WA","Chehalis","120 Kirkland Rd",2022-08-11 20:50:06,2022-08-12
-122.746794,45.911167,TRUE,"WA","Woodland","1601 Pacific Ave",2022-08-11 20:50:06,2022-08-12
-122.962506,46.678065,FALSE,"WA","Chehalis","15 Ne Median",2022-08-11 20:50:06,2022-08-12
-122.978241,46.730036,FALSE,"WA","Centralia","1201 Lum Rd",2022-08-11 20:50:06,2022-08-12
-122.977571,46.675921,FALSE,"WA","Chehalis","1400 Nw Louisiana Ave",2022-08-11 20:50:06,2022-08-12
-123.011156,46.801363,FALSE,"WA","Rochester","19734 Old Hwy 99 Sw",2022-08-11 20:50:06,2022-08-12
-122.900574,46.284413,FALSE,"WA","Castle Rock","1040 Dougherty Dr Ne",2022-08-11 20:51:06,2022-08-12
-123.124255,47.2263,FALSE,"WA","Shelton","2507 Olympic Hwy N",2022-08-11 20:51:06,2022-08-12
-122.895824,46.14291,FALSE,"WA","Kelso","300 Kelso Dr",2022-08-11 20:50:06,2022-08-12
-122.9247,46.145971,FALSE,"WA","Longview","729 Ocean Beach Highway",2022-08-11 20:50:06,2022-08-12
-122.983097,46.155055,FALSE,"WA","Longview","2196 38th Ave",2022-08-11 20:50:06,2022-08-12
-123.403115,48.107283,FALSE,"WA","Port Angeles","1706 E Front",2022-08-11 20:51:06,2022-08-12
-123.80426,46.97701,FALSE,"WA","Aberdeen","1101 E Wishkah St",2022-08-11 20:52:06,2022-08-12
-123.738832,46.680835,FALSE,"WA","Raymond","100 Willapa Place",2022-08-11 20:52:06,2022-08-12
-123.806605,46.975326,FALSE,"WA","Aberdeen","909 E Wishkah",2022-08-11 20:52:06,2022-08-12
-123.867098,46.975623,FALSE,"WA","Hoquiam","2501 Simpson Avenue",2022-08-11 20:52:06,2022-08-12
-124.162087,47.007879,FALSE,"WA","Ocean Shores","701 Point Browne Ave Nw",2022-08-11 20:53:06,2022-08-12
-124.054297,46.342259,FALSE,"WA","Long Beach","100 16th St Se",2022-08-11 20:53:06,2022-08-12
